[{"iata":"OCA","icao":"07FA","name":"Ocean Reef Club Airport","city":"Key Largo","country":"US","lat":25.3254,"lon":-80.2748},{"iata":"WKK","icao":"5A8","name":"Aleknagik / New Airport","city":"Aleknagik","country":"US","lat":59.2826,"lon":-158.618},{"iata":"BBQ","icao":"AG-0001","name":"Burton-Nibbs International Airport","city":"Codrington","country":"AG","lat":17.6212,"lon":-61.7983},{"iata":"HIR","icao":"AGGH","name":"Honiara International Airport","city":"Honiara","country":"SB","lat":-9.428,"lon":160.055},{"iata":"MUA","icao":"AGGM","name":"Munda Airport","city":"Munda","country":"SB","lat":-8.328,"lon":157.263},{"iata":"INU","icao":"ANYN","name":"Nauru International Airport","city":"Yaren","country":"NR","lat":-0.5479,"lon":166.9195},{"iata":"WFR","icao":"AT98","name":"[Duplicate] Wolf's Fang Runway","city":"Queen Maud Island","country":"AQ","lat":-71.5264,"lon":8.7995},{"iata":"AXF","icao":"AXF","name":"Alxa Left Banner Bayanhot Airport","city":"Bayanhot","country":"CN","lat":38.7483,"lon":105.5842},{"iata":"VMU","icao":"AYBA","name":"Baimuru Airport","city":"Baimuru","country":"PG","lat":-7.497,"lon":144.8218},{"iata":"BUA","icao":"AYBK","name":"Buka Airport","city":"Buka Island","country":"PG","lat":-5.4223,"lon":154.6727},{"iata":"OPU","icao":"AYBM","name":"Balimo Airport","city":"Balimo","country":"PG","lat":-8.05,"lon":142.933},{"iata":"CMU","icao":"AYCH","name":"Chimbu Airport","city":"Kundiawa","country":"PG","lat":-6.0243,"lon":144.971},{"iata":"DAU","icao":"AYDU","name":"Daru Airport","city":"Daru","country":"PG","lat":-9.0868,"lon":143.208},{"iata":"GKA","icao":"AYGA","name":"Goroka Airport","city":"Goronka","country":"PG","lat":-6.0817,"lon":145.392},{"iata":"GUR","icao":"AYGN","name":"Gurney Airport","city":"Gurney","country":"PG","lat":-10.3115,"lon":150.334},{"iata":"PNP","icao":"AYGR","name":"Girua Airport","city":"Popondetta","country":"PG","lat":-8.8045,"lon":148.309},{"iata":"HKN","icao":"AYHK","name":"Hoskins Airport","city":"Kimbe","country":"PG","lat":-5.4638,"lon":150.4073},{"iata":"KMA","icao":"AYKM","name":"Kerema Airport","city":"Kerema","country":"PG","lat":-7.9636,"lon":145.771},{"iata":"KVG","icao":"AYKV","name":"Kavieng Airport","city":"Kavieng","country":"PG","lat":-2.5794,"lon":150.808},{"iata":"MAG","icao":"AYMD","name":"Madang Airport","city":"Madang","country":"PG","lat":-5.2071,"lon":145.789},{"iata":"HGU","icao":"AYMH","name":"Mount Hagen Kagamuga Airport","city":"Mount Hagen","country":"PG","lat":-5.8282,"lon":144.2994},{"iata":"MDU","icao":"AYMN","name":"Mendi Airport","city":"Mendi","country":"PG","lat":-6.1477,"lon":143.657},{"iata":"MAS","icao":"AYMO","name":"Momote Airport","city":"Manus Island","country":"PG","lat":-2.0619,"lon":147.424},{"iata":"LAE","icao":"AYNZ","name":"Nadzab Tomodachi International Airport","city":"Lae","country":"PG","lat":-6.568,"lon":146.7265},{"iata":"POM","icao":"AYPY","name":"Port Moresby Jacksons International Airport","city":"Port Moresby","country":"PG","lat":-9.4434,"lon":147.22},{"iata":"RAB","icao":"AYTK","name":"Tokua Airport","city":"Kokopo","country":"PG","lat":-4.3405,"lon":152.38},{"iata":"VAI","icao":"AYVN","name":"Vanimo Airport","city":"Vanimo","country":"PG","lat":-2.6926,"lon":141.3028},{"iata":"WBM","icao":"AYWD","name":"Wapenamanda Airport","city":"Wapenamanda","country":"PG","lat":-5.6353,"lon":143.8922},{"iata":"WWK","icao":"AYWK","name":"Wewak International Airport","city":"Wewak","country":"PG","lat":-3.5838,"lon":143.669},{"iata":"ZXT","icao":"AZ-0001","name":"Zabrat Airport","city":"Zabrat","country":"AZ","lat":40.4949,"lon":49.9771},{"iata":"BCW","icao":"BCW","name":"Benguera Island Airport","city":"Benguera Island","country":"MZ","lat":-21.8533,"lon":35.4383},{"iata":"JAM","icao":"BG-JAM","name":"Bezmer Air Base","city":"Bezmer","country":"BG","lat":42.4549,"lon":26.3522},{"iata":"JEG","icao":"BGAA","name":"Aasiaat Airport","city":"Aasiaat","country":"GL","lat":68.7218,"lon":-52.7847},{"iata":"CNP","icao":"BGCO","name":"Neerlerit Inaat Airport","city":"Neerlerit Inaat","country":"GL","lat":70.7431,"lon":-22.6505},{"iata":"GOH","icao":"BGGH","name":"Nuuk International Airport","city":"Nuuk","country":"GL","lat":64.1911,"lon":-51.6791},{"iata":"JAV","icao":"BGJN","name":"Ilulissat Airport","city":"Ilulissat","country":"GL","lat":69.2432,"lon":-51.0571},{"iata":"KUS","icao":"BGKK","name":"Kulusuk Airport","city":"Kulusuk","country":"GL","lat":65.5736,"lon":-37.1236},{"iata":"NAQ","icao":"BGQQ","name":"Qaanaaq Airport","city":"Qaanaaq","country":"GL","lat":77.4886,"lon":-69.3887},{"iata":"SFJ","icao":"BGSF","name":"Kangerlussuaq International Airport","city":"Kangerlussuaq","country":"GL","lat":67.0104,"lon":-50.7153},{"iata":"JHS","icao":"BGSS","name":"Sisimiut Airport","city":"Sisimiut","country":"GL","lat":66.9513,"lon":-53.7293},{"iata":"THU","icao":"BGTL","name":"Pituffik Space Base","city":"Pituffik","country":"GL","lat":76.5306,"lon":-68.7005},{"iata":"AEY","icao":"BIAR","name":"Akureyri International Airport","city":"Akureyri","country":"IS","lat":65.6566,"lon":-18.072},{"iata":"BIU","icao":"BIBD","name":"Bildudalur Airport","city":"Bildudalur","country":"IS","lat":65.6413,"lon":-23.5462},{"iata":"EGS","icao":"BIEG","name":"Egilsstaðir Airport","city":"Egilsstaðir","country":"IS","lat":65.2833,"lon":-14.4014},{"iata":"GRY","icao":"BIGR","name":"Grímsey Airport","city":"Grímsey/Sandvík","country":"IS","lat":66.5458,"lon":-18.0173},{"iata":"HFN","icao":"BIHN","name":"Hornafjörður Airport","city":"Höfn","country":"IS","lat":64.2956,"lon":-15.2272},{"iata":"HZK","icao":"BIHU","name":"Húsavík Airport","city":"Húsavík","country":"IS","lat":65.9523,"lon":-17.426},{"iata":"IFJ","icao":"BIIS","name":"Ísafjörður Airport","city":"Ísafjörður","country":"IS","lat":66.0581,"lon":-23.1353},{"iata":"KEF","icao":"BIKF","name":"Keflavik International Airport","city":"Reykjavík","country":"IS","lat":63.985,"lon":-22.6056},{"iata":"RKV","icao":"BIRK","name":"Reykjavík Domestic Airport","city":"Reykjavík","country":"IS","lat":64.1287,"lon":-21.9376},{"iata":"MVA","icao":"BIRL","name":"Mývatn Airport","city":"Myvatn","country":"IS","lat":65.6558,"lon":-16.9181},{"iata":"SIJ","icao":"BISI","name":"Siglufjörður Airport","city":"Siglufjörður","country":"IS","lat":66.1378,"lon":-18.9082},{"iata":"VEY","icao":"BIVM","name":"Vestmannaeyjar Airport","city":"Vestmannaeyjar","country":"IS","lat":63.4243,"lon":-20.2789},{"iata":"VPN","icao":"BIVO","name":"Vopnafjörður Airport","city":"Vopnafjörður","country":"IS","lat":65.7206,"lon":-14.8506},{"iata":"PRN","icao":"BKPR","name":"Priština Adem Jashari International Airport","city":"Prishtina","country":"XK","lat":42.5728,"lon":21.0358},{"iata":"VDC","icao":"BR-0569","name":"Glauber de Andrade Rocha Airport","city":"Vitória da Conquista","country":"BR","lat":-14.9079,"lon":-40.9148},{"iata":"BTZ","icao":"BTZ","name":"Betong International Airport","city":"Betong","country":"TH","lat":5.79,"lon":101.15},{"iata":"TXC","icao":"BY-0001","name":"Orsha Airport - Balbasovo Air Base","city":"Orsha","country":"BY","lat":54.44,"lon":30.2967},{"iata":"CUK","icao":"BZ-CUK","name":"Caye Caulker Airport","city":"Caye Caulker","country":"BZ","lat":17.735,"lon":-88.0329},{"iata":"CYC","icao":"BZ-CYC","name":"Caye Chapel Airport","city":"Caye Chapel","country":"BZ","lat":17.6838,"lon":-88.045},{"iata":"CZH","icao":"BZ-CZH","name":"Corozal Airport","city":"Corozal","country":"BZ","lat":18.3822,"lon":-88.4119},{"iata":"DGA","icao":"BZ-DGA","name":"Dangriga Airport","city":"Dangriga","country":"BZ","lat":16.9825,"lon":-88.231},{"iata":"SJX","icao":"BZ-SJX","name":"Sartaneja Airport","city":"Sartaneja","country":"BZ","lat":18.3561,"lon":-88.1308},{"iata":"SPR","icao":"BZ-SPR","name":"John Greif II Airport","city":"San Pedro","country":"BZ","lat":17.9139,"lon":-87.9711},{"iata":"TZA","icao":"BZ-TZA","name":"Sir Barry Bowen Municipal Airport","city":"Belize City","country":"BZ","lat":17.5172,"lon":-88.1958},{"iata":"BZB","icao":"BZB","name":"Bazaruto Island Airport","city":"Bazaruto Island","country":"MZ","lat":-21.5411,"lon":35.4729},{"iata":"YAA","icao":"CAJ4","name":"Anahim Lake Airport","city":"Anahim Lake","country":"CA","lat":52.4515,"lon":-125.3038},{"iata":"XQU","icao":"CAT4","name":"Qualicum Beach Airport","city":"Qualicum Beach","country":"CA","lat":49.3375,"lon":-124.3931},{"iata":"YZA","icao":"CAZ5","name":"Cache Creek-Ashcroft Regional Airport","city":"Cache Creek","country":"CA","lat":50.7753,"lon":-121.3213},{"iata":"ZEL","icao":"CBBC","name":"Bella Bella (Campbell Island) Airport","city":"Bella Bella","country":"CA","lat":52.185,"lon":-128.157},{"iata":"BZX","icao":"CN-0062","name":"Bazhong Enyang Airport","city":"Bazhong","country":"CN","lat":31.7384,"lon":106.6449},{"iata":"HSC","icao":"CN-0079","name":"Shaoguan Danxia Airport","city":"Shaoguan","country":"CN","lat":24.9786,"lon":113.421},{"iata":"JGS","icao":"CN-0081","name":"Jinggangshan Airport","city":"Ji'an","country":"CN","lat":26.8569,"lon":114.737},{"iata":"HNG","icao":"CN-0117","name":"Hainanzhou Gonghe Airport","city":"Hainan (Gonghe)","country":"CN","lat":36.3367,"lon":100.48},{"iata":"JNH","icao":"CN-0154","name":"Jiaxing Nanhu Airport","city":"Xiuzhou, Hangzhou","country":"CN","lat":30.6981,"lon":120.6631},{"iata":"WHN","icao":"CN-0178","name":"Wuhan Hannan Municipal Airport","city":"Wuhan (Hannan)","country":"CN","lat":30.2552,"lon":114.0628},{"iata":"DDR","icao":"CN-0236","name":"Shigatse Tingri Airport","city":"Xigazê (Dingri)","country":"CN","lat":28.6046,"lon":86.798},{"iata":"HQL","icao":"CN-0237","name":"Tashikuergan Hongqilafu Airport","city":"Tashikuergan","country":"CN","lat":37.6613,"lon":75.2889},{"iata":"JDE","icao":"CN-0253","name":"Jiande Qiandaohu General Airport","city":"Hangzhou","country":"CN","lat":29.3609,"lon":119.1808},{"iata":"APJ","icao":"CN-0354","name":"Ali Pulan Airport","city":"Burang Town","country":"CN","lat":30.3979,"lon":81.1332},{"iata":"ZAT","icao":"CN-0421","name":"Zhaotong Zhaoyang Airport （Not fully opened)","city":"Zhaotong","country":"CN","lat":27.2058,"lon":103.6915},{"iata":"BFY","icao":"CN-0476","name":"Bengbu Tenghu Airport","city":"Bengbu","country":"CN","lat":33.1663,"lon":117.0583},{"iata":"YAG","icao":"CYAG","name":"Fort Frances Municipal Airport","city":"Fort Frances","country":"CA","lat":48.6557,"lon":-93.4435},{"iata":"YAH","icao":"CYAH","name":"La Grande-4 Airport","city":"La Grande-4","country":"CA","lat":53.7547,"lon":-73.6753},{"iata":"YAM","icao":"CYAM","name":"Sault Ste Marie Airport","city":"Sault Ste Marie","country":"CA","lat":46.4832,"lon":-84.5085},{"iata":"XKS","icao":"CYAQ","name":"Kasabonika Airport","city":"Kasabonika","country":"CA","lat":53.5247,"lon":-88.6428},{"iata":"YAY","icao":"CYAY","name":"St. Anthony Airport","city":"St. Anthony","country":"CA","lat":51.3919,"lon":-56.0832},{"iata":"YAZ","icao":"CYAZ","name":"Tofino / Long Beach Airport","city":"Tofino","country":"CA","lat":49.0798,"lon":-125.7756},{"iata":"YBC","icao":"CYBC","name":"Baie-Comeau Airport","city":"Baie-Comeau","country":"CA","lat":49.1325,"lon":-68.2044},{"iata":"QBC","icao":"CYBD","name":"Bella Coola Airport","city":"Bella Coola","country":"CA","lat":52.3875,"lon":-126.596},{"iata":"YBY","icao":"CYBF","name":"Bonnyville Airport","city":"Bonnyville","country":"CA","lat":54.3042,"lon":-110.744},{"iata":"YBG","icao":"CYBG","name":"Saguenay-Bagotville Airport","city":"Saguenay","country":"CA","lat":48.3301,"lon":-70.992},{"iata":"YBK","icao":"CYBK","name":"Baker Lake Airport","city":"Baker Lake","country":"CA","lat":64.2989,"lon":-96.0778},{"iata":"YBL","icao":"CYBL","name":"Campbell River Airport","city":"Campbell River","country":"CA","lat":49.9508,"lon":-125.271},{"iata":"YBR","icao":"CYBR","name":"Brandon Municipal Airport","city":"Brandon","country":"CA","lat":49.91,"lon":-99.9519},{"iata":"YBX","icao":"CYBX","name":"Lourdes-de-Blanc-Sablon Airport","city":"Blanc-Sablon","country":"CA","lat":51.4436,"lon":-57.1853},{"iata":"YCB","icao":"CYCB","name":"Cambridge Bay Airport","city":"Cambridge Bay","country":"CA","lat":69.1081,"lon":-105.138},{"iata":"YCC","icao":"CYCC","name":"Cornwall Regional Airport","city":"Cornwall","country":"CA","lat":45.0926,"lon":-74.5677},{"iata":"YCD","icao":"CYCD","name":"Nanaimo Airport","city":"Nanaimo","country":"CA","lat":49.055,"lon":-123.8699},{"iata":"YCE","icao":"CYCE","name":"Centralia / James T. Field Memorial Aerodrome","city":"Huron Park","country":"CA","lat":43.2856,"lon":-81.5083},{"iata":"YCG","icao":"CYCG","name":"Castlegar/West Kootenay Regional Airport","city":"Castlegar","country":"CA","lat":49.2964,"lon":-117.632},{"iata":"YCH","icao":"CYCH","name":"Miramichi Airport","city":"Miramichi","country":"CA","lat":47.0078,"lon":-65.4492},{"iata":"YCL","icao":"CYCL","name":"Charlo Airport","city":"Charlo","country":"CA","lat":47.9908,"lon":-66.3303},{"iata":"YCN","icao":"CYCN","name":"Cochrane Airport","city":"Cochrane","country":"CA","lat":49.1056,"lon":-81.0136},{"iata":"YCQ","icao":"CYCQ","name":"Chetwynd Airport","city":"Chetwynd","country":"CA","lat":55.6872,"lon":-121.627},{"iata":"YDA","icao":"CYDA","name":"Dawson City Airport","city":"Dawson City","country":"CA","lat":64.0431,"lon":-139.128},{"iata":"YDB","icao":"CYDB","name":"Burwash Airport","city":"Burwash Landing","country":"CA","lat":61.3711,"lon":-139.041},{"iata":"YDF","icao":"CYDF","name":"Deer Lake Airport","city":"Deer Lake","country":"CA","lat":49.2082,"lon":-57.3961},{"iata":"XRR","icao":"CYDM","name":"Ross River Airport","city":"Ross River","country":"CA","lat":61.9706,"lon":-132.423},{"iata":"YDN","icao":"CYDN","name":"Dauphin Barker Airport","city":"Dauphin","country":"CA","lat":51.1008,"lon":-100.052},{"iata":"YDO","icao":"CYDO","name":"Dolbeau-Saint-Felicien Airport","city":"Dolbeau-Saint-Felicien","country":"CA","lat":48.7785,"lon":-72.375},{"iata":"YDQ","icao":"CYDQ","name":"Dawson Creek Airport","city":"Dawson Creek","country":"CA","lat":55.7412,"lon":-120.1833},{"iata":"YEG","icao":"CYEG","name":"Edmonton International Airport","city":"Edmonton","country":"CA","lat":53.3097,"lon":-113.58},{"iata":"YEL","icao":"CYEL","name":"Elliot Lake Municipal Airport","city":"Elliot Lake","country":"CA","lat":46.3514,"lon":-82.5614},{"iata":"YEM","icao":"CYEM","name":"Manitoulin East Municipal Airport","city":"Sheguiandah","country":"CA","lat":45.8424,"lon":-81.8576},{"iata":"YEN","icao":"CYEN","name":"Estevan Airport","city":"Estevan","country":"CA","lat":49.2103,"lon":-102.966},{"iata":"YET","icao":"CYET","name":"Edson Airport","city":"Edson","country":"CA","lat":53.5789,"lon":-116.465},{"iata":"YEV","icao":"CYEV","name":"Inuvik Mike Zubko Airport","city":"Inuvik","country":"CA","lat":68.3042,"lon":-133.483},{"iata":"YEY","icao":"CYEY","name":"Amos/Magny Airport","city":"Amos","country":"CA","lat":48.5639,"lon":-78.2497},{"iata":"YFB","icao":"CYFB","name":"Iqaluit Airport","city":"Iqaluit","country":"CA","lat":63.7564,"lon":-68.5558},{"iata":"YFC","icao":"CYFC","name":"Fredericton International Airport","city":"Fredericton","country":"CA","lat":45.8687,"lon":-66.5299},{"iata":"YFE","icao":"CYFE","name":"Forestville Airport","city":"Forestville","country":"CA","lat":48.7461,"lon":-69.0972},{"iata":"YTM","icao":"CYFJ","name":"Mont-Tremblant International Airport","city":"La Macaza","country":"CA","lat":46.4094,"lon":-74.78},{"iata":"YFR","icao":"CYFR","name":"Fort Resolution Airport","city":"Fort Resolution","country":"CA","lat":61.1808,"lon":-113.69},{"iata":"YFS","icao":"CYFS","name":"Fort Simpson Airport","city":"Fort Simpson","country":"CA","lat":61.7602,"lon":-121.237},{"iata":"YGK","icao":"CYGK","name":"Kingston Norman Rogers Airport","city":"Kingston","country":"CA","lat":44.2253,"lon":-76.5969},{"iata":"YGL","icao":"CYGL","name":"La Grande Rivière Airport","city":"La Grande Rivière","country":"CA","lat":53.6253,"lon":-77.7042},{"iata":"YGM","icao":"CYGM","name":"Gimli Industrial Park Airport","city":"Gimli","country":"CA","lat":50.6281,"lon":-97.0433},{"iata":"YGP","icao":"CYGP","name":"Michel-Pouliot Gaspé Airport","city":"Gaspé","country":"CA","lat":48.7749,"lon":-64.4819},{"iata":"YGQ","icao":"CYGQ","name":"Geraldton Greenstone Regional Airport","city":"Geraldton","country":"CA","lat":49.7783,"lon":-86.9394},{"iata":"YGR","icao":"CYGR","name":"Îles-de-la-Madeleine Airport","city":"Les Îles-de-la-Madeleine","country":"CA","lat":47.4252,"lon":-61.7786},{"iata":"YGV","icao":"CYGV","name":"Havre-Saint-Pierre Airport","city":"Havre-Saint-Pierre","country":"CA","lat":50.2819,"lon":-63.6114},{"iata":"YGW","icao":"CYGW","name":"Kuujjuarapik Airport","city":"Kuujjuarapik","country":"CA","lat":55.2819,"lon":-77.7653},{"iata":"YHD","icao":"CYHD","name":"Dryden Regional Airport","city":"Dryden","country":"CA","lat":49.8317,"lon":-92.7442},{"iata":"YHF","icao":"CYHF","name":"Hearst René Fontaine Municipal Airport","city":"Hearst","country":"CA","lat":49.7142,"lon":-83.6861},{"iata":"YHM","icao":"CYHM","name":"John C. Munro Hamilton International Airport","city":"Hamilton","country":"CA","lat":43.1735,"lon":-79.9312},{"iata":"YHN","icao":"CYHN","name":"Hornepayne Municipal Airport","city":"Hornepayne","country":"CA","lat":49.1931,"lon":-84.7589},{"iata":"YHT","icao":"CYHT","name":"Haines Junction Airport","city":"Haines Junction","country":"CA","lat":60.7892,"lon":-137.546},{"iata":"YHU","icao":"CYHU","name":"Montréal / Saint-Hubert Metropolitan Airport","city":"Montréal","country":"CA","lat":45.5175,"lon":-73.4169},{"iata":"YHY","icao":"CYHY","name":"Hay River / Merlyn Carter Airport","city":"Hay River","country":"CA","lat":60.8397,"lon":-115.783},{"iata":"YHZ","icao":"CYHZ","name":"Halifax / Stanfield International Airport","city":"Halifax","country":"CA","lat":44.8808,"lon":-63.5086},{"iata":"YIB","icao":"CYIB","name":"Atikokan Municipal Airport","city":"Atikokan","country":"CA","lat":48.7739,"lon":-91.6386},{"iata":"YDG","icao":"CYID","name":"Digby / Annapolis Regional Airport","city":"Digby","country":"CA","lat":44.5458,"lon":-65.7854},{"iata":"YIF","icao":"CYIF","name":"St Augustin Airport","city":"St-Augustin","country":"CA","lat":51.2117,"lon":-58.6583},{"iata":"YIV","icao":"CYIV","name":"Island Lake Airport","city":"Island Lake","country":"CA","lat":53.8572,"lon":-94.6536},{"iata":"YJF","icao":"CYJF","name":"Fort Liard Airport","city":"Fort Liard","country":"CA","lat":60.2358,"lon":-123.469},{"iata":"YJN","icao":"CYJN","name":"St Jean Airport","city":"St Jean","country":"CA","lat":45.2944,"lon":-73.2811},{"iata":"YJT","icao":"CYJT","name":"Stephenville Dymond International Airport","city":"Stephenville","country":"CA","lat":48.5434,"lon":-58.5529},{"iata":"YKA","icao":"CYKA","name":"Kamloops John Moose Fulton Field Regional Airport","city":"Kamloops","country":"CA","lat":50.703,"lon":-120.4486},{"iata":"YKF","icao":"CYKF","name":"Region of Waterloo International Airport","city":"Breslau","country":"CA","lat":43.4608,"lon":-80.3786},{"iata":"YKJ","icao":"CYKJ","name":"Key Lake Airport","city":"Key Lake","country":"CA","lat":57.2561,"lon":-105.618},{"iata":"YKL","icao":"CYKL","name":"Schefferville Airport","city":"Schefferville","country":"CA","lat":54.8053,"lon":-66.8053},{"iata":"YKD","icao":"CYKM","name":"Kincardine Municipal Airport","city":"Kincardine","country":"CA","lat":44.2014,"lon":-81.6067},{"iata":"YKX","icao":"CYKX","name":"Kirkland Lake Airport","city":"Kirkland Lake","country":"CA","lat":48.2103,"lon":-79.9814},{"iata":"YKY","icao":"CYKY","name":"Kindersley Airport","city":"Kindersley","country":"CA","lat":51.5175,"lon":-109.181},{"iata":"YLD","icao":"CYLD","name":"Chapleau Airport","city":"Chapleau","country":"CA","lat":47.82,"lon":-83.3467},{"iata":"YLJ","icao":"CYLJ","name":"Meadow Lake Airport","city":"Meadow Lake","country":"CA","lat":54.1253,"lon":-108.523},{"iata":"YLL","icao":"CYLL","name":"Lloydminster Airport","city":"Lloydminster","country":"CA","lat":53.3092,"lon":-110.073},{"iata":"YLR","icao":"CYLR","name":"Leaf Rapids Airport","city":"Leaf Rapids","country":"CA","lat":56.5133,"lon":-99.9853},{"iata":"YLK","icao":"CYLS","name":"Barrie-Lake Simcoe Regional Airport","city":"Barrie","country":"CA","lat":44.4851,"lon":-79.5547},{"iata":"YLT","icao":"CYLT","name":"Alert Airport","city":"Alert","country":"CA","lat":82.5173,"lon":-62.283},{"iata":"YLW","icao":"CYLW","name":"Kelowna International Airport","city":"Kelowna","country":"CA","lat":49.9561,"lon":-119.378},{"iata":"YMA","icao":"CYMA","name":"Mayo Airport","city":"Mayo","country":"CA","lat":63.6164,"lon":-135.868},{"iata":"YME","icao":"CYME","name":"Matane Airport","city":"Matane","country":"CA","lat":48.8569,"lon":-67.4533},{"iata":"YMG","icao":"CYMG","name":"Manitouwadge Airport","city":"Manitouwadge","country":"CA","lat":49.0839,"lon":-85.8606},{"iata":"YMJ","icao":"CYMJ","name":"Moose Jaw Air Vice Marshal C. M. McEwen Airport","city":"Moose Jaw","country":"CA","lat":50.3303,"lon":-105.559},{"iata":"YML","icao":"CYML","name":"Charlevoix Airport","city":"Charlevoix","country":"CA","lat":47.5975,"lon":-70.2239},{"iata":"YMM","icao":"CYMM","name":"Fort McMurray International Airport","city":"Fort McMurray","country":"CA","lat":56.6533,"lon":-111.222},{"iata":"YMO","icao":"CYMO","name":"Moosonee Airport","city":"Moosonee","country":"CA","lat":51.2911,"lon":-80.6078},{"iata":"YMT","icao":"CYMT","name":"Chapais Airport","city":"Chibougamau","country":"CA","lat":49.7719,"lon":-74.5281},{"iata":"YMX","icao":"CYMX","name":"Montreal Mirabel International Airport","city":"Montréal","country":"CA","lat":45.6795,"lon":-74.0387},{"iata":"YNA","icao":"CYNA","name":"Natashquan Airport","city":"Natashquan","country":"CA","lat":50.1901,"lon":-61.789},{"iata":"YND","icao":"CYND","name":"Ottawa / Gatineau Airport","city":"Gatineau","country":"CA","lat":45.5217,"lon":-75.5636},{"iata":"YLY","icao":"CYNJ","name":"Langley Airport","city":"Langley","country":"CA","lat":49.1008,"lon":-122.631},{"iata":"YNL","icao":"CYNL","name":"Points North Landing Airport","city":"Points North Landing","country":"CA","lat":58.2767,"lon":-104.082},{"iata":"YNM","icao":"CYNM","name":"Matagami Airport","city":"Matagami","country":"CA","lat":49.7617,"lon":-77.8028},{"iata":"YOA","icao":"CYOA","name":"Ekati Airport","city":"Ekati","country":"CA","lat":64.6989,"lon":-110.615},{"iata":"YOD","icao":"CYOD","name":"CFB Cold Lake","city":"Cold Lake","country":"CA","lat":54.405,"lon":-110.279},{"iata":"YOJ","icao":"CYOJ","name":"High Level Airport","city":"High Level","country":"CA","lat":58.6214,"lon":-117.165},{"iata":"YOO","icao":"CYOO","name":"Oshawa Executive Airport","city":"Oshawa","country":"CA","lat":43.9228,"lon":-78.895},{"iata":"YOP","icao":"CYOP","name":"Rainbow Lake Airport","city":"Rainbow Lake","country":"CA","lat":58.4914,"lon":-119.408},{"iata":"YOS","icao":"CYOS","name":"Owen Sound / Billy Bishop Regional Airport","city":"Owen Sound","country":"CA","lat":44.5903,"lon":-80.8375},{"iata":"YOW","icao":"CYOW","name":"Ottawa Macdonald-Cartier International Airport","city":"Ottawa","country":"CA","lat":45.3225,"lon":-75.6692},{"iata":"YPA","icao":"CYPA","name":"Prince Albert Glass Field","city":"Prince Albert","country":"CA","lat":53.2142,"lon":-105.673},{"iata":"YPS","icao":"CYPD","name":"Port Hawkesbury Airport","city":"Port Hawkesbury","country":"CA","lat":45.6567,"lon":-61.3681},{"iata":"YPE","icao":"CYPE","name":"Peace River Airport","city":"Peace River","country":"CA","lat":56.2269,"lon":-117.447},{"iata":"YPG","icao":"CYPG","name":"Portage-la-Prairie / Southport Airport","city":"Portage la Prairie","country":"CA","lat":49.9031,"lon":-98.2738},{"iata":"YPL","icao":"CYPL","name":"Pickle Lake Airport","city":"Pickle Lake","country":"CA","lat":51.4464,"lon":-90.2142},{"iata":"YPN","icao":"CYPN","name":"Port-Menier Airport","city":"Port-Menier","country":"CA","lat":49.8364,"lon":-64.2886},{"iata":"YPQ","icao":"CYPQ","name":"Peterborough Regional Airport","city":"Peterborough","country":"CA","lat":44.2323,"lon":-78.3621},{"iata":"YPR","icao":"CYPR","name":"Prince Rupert Airport","city":"Prince Rupert","country":"CA","lat":54.2861,"lon":-130.445},{"iata":"YPW","icao":"CYPW","name":"Powell River Airport","city":"Powell River","country":"CA","lat":49.8342,"lon":-124.5},{"iata":"YPX","icao":"CYPX","name":"Puvirnituq Airport","city":"Puvirnituq","country":"CA","lat":60.0506,"lon":-77.2869},{"iata":"YPY","icao":"CYPY","name":"Fort Chipewyan Airport","city":"Fort Chipewyan","country":"CA","lat":58.7672,"lon":-111.117},{"iata":"YPZ","icao":"CYPZ","name":"Burns Lake Airport","city":"Burns Lake","country":"CA","lat":54.3764,"lon":-125.951},{"iata":"YQA","icao":"CYQA","name":"Muskoka Airport","city":"Gravenhurst","country":"CA","lat":44.9754,"lon":-79.3065},{"iata":"YQB","icao":"CYQB","name":"Quebec Jean Lesage International Airport","city":"Quebec","country":"CA","lat":46.7911,"lon":-71.3933},{"iata":"YQD","icao":"CYQD","name":"The Pas Airport","city":"The Pas","country":"CA","lat":53.9714,"lon":-101.091},{"iata":"YQF","icao":"CYQF","name":"Red Deer Regional Airport","city":"Springbrook","country":"CA","lat":52.1822,"lon":-113.894},{"iata":"YQG","icao":"CYQG","name":"Windsor International Airport","city":"Windsor","country":"CA","lat":42.2756,"lon":-82.9556},{"iata":"YQH","icao":"CYQH","name":"Watson Lake Airport","city":"Watson Lake","country":"CA","lat":60.1168,"lon":-128.822},{"iata":"YQI","icao":"CYQI","name":"Yarmouth Airport","city":"Yarmouth","country":"CA","lat":43.8269,"lon":-66.0881},{"iata":"YQK","icao":"CYQK","name":"Kenora Airport","city":"Kenora","country":"CA","lat":49.7883,"lon":-94.3631},{"iata":"YQL","icao":"CYQL","name":"Lethbridge County Airport","city":"Lethbridge","country":"CA","lat":49.6303,"lon":-112.8},{"iata":"YQM","icao":"CYQM","name":"Greater Moncton Roméo LeBlanc International Airport","city":"Moncton","country":"CA","lat":46.1132,"lon":-64.6772},{"iata":"YQN","icao":"CYQN","name":"Nakina Airport","city":"Nakina","country":"CA","lat":50.1828,"lon":-86.6964},{"iata":"YQQ","icao":"CYQQ","name":"Comox Valley International Airport / CFB Comox","city":"Comox","country":"CA","lat":49.7108,"lon":-124.887},{"iata":"YQR","icao":"CYQR","name":"Regina International Airport","city":"Regina","country":"CA","lat":50.4319,"lon":-104.6609},{"iata":"YQS","icao":"CYQS","name":"St Thomas Municipal Airport","city":"St Thomas","country":"CA","lat":42.77,"lon":-81.1108},{"iata":"YQT","icao":"CYQT","name":"Thunder Bay International Airport","city":"Thunder Bay","country":"CA","lat":48.3719,"lon":-89.3239},{"iata":"YQU","icao":"CYQU","name":"Grande Prairie Airport","city":"Grande Prairie","country":"CA","lat":55.1797,"lon":-118.885},{"iata":"YQV","icao":"CYQV","name":"Yorkton Municipal Airport","city":"Yorkton","country":"CA","lat":51.2647,"lon":-102.462},{"iata":"YQW","icao":"CYQW","name":"North Battleford Airport","city":"North Battleford","country":"CA","lat":52.7694,"lon":-108.2437},{"iata":"YQX","icao":"CYQX","name":"Gander International Airport","city":"Gander","country":"CA","lat":48.9363,"lon":-54.5677},{"iata":"YQY","icao":"CYQY","name":"Sydney / J.A. Douglas McCurdy Airport","city":"Sydney","country":"CA","lat":46.1611,"lon":-60.0498},{"iata":"YQZ","icao":"CYQZ","name":"Quesnel Airport","city":"Quesnel","country":"CA","lat":53.0261,"lon":-122.51},{"iata":"YRB","icao":"CYRB","name":"Resolute Bay Airport","city":"Resolute Bay","country":"CA","lat":74.7169,"lon":-94.9694},{"iata":"YRI","icao":"CYRI","name":"Rivière-du-Loup Airport","city":"Rivière-du-Loup","country":"CA","lat":47.7644,"lon":-69.5847},{"iata":"YRJ","icao":"CYRJ","name":"Roberval Airport","city":"Roberval","country":"CA","lat":48.5197,"lon":-72.2657},{"iata":"YRL","icao":"CYRL","name":"Red Lake Airport","city":"Red Lake","country":"CA","lat":51.0669,"lon":-93.7931},{"iata":"YRO","icao":"CYRO","name":"Ottawa / Rockcliffe Airport","city":"Ottawa","country":"CA","lat":45.4605,"lon":-75.644},{"iata":"YRQ","icao":"CYRQ","name":"Trois-Rivières Airport","city":"Trois-Rivières","country":"CA","lat":46.3528,"lon":-72.6794},{"iata":"YRT","icao":"CYRT","name":"Rankin Inlet Airport","city":"Rankin Inlet","country":"CA","lat":62.8114,"lon":-92.1158},{"iata":"YRV","icao":"CYRV","name":"Revelstoke Airport","city":"Revelstoke","country":"CA","lat":50.9622,"lon":-118.1843},{"iata":"YSB","icao":"CYSB","name":"Sudbury Airport","city":"Sudbury","country":"CA","lat":46.625,"lon":-80.7989},{"iata":"YSC","icao":"CYSC","name":"Sherbrooke Airport","city":"Sherbrooke","country":"CA","lat":45.4386,"lon":-71.6914},{"iata":"YSF","icao":"CYSF","name":"Stony Rapids Airport","city":"Stony Rapids","country":"CA","lat":59.2503,"lon":-105.841},{"iata":"YSH","icao":"CYSH","name":"Smiths Falls-Montague (Russ Beach) Airport","city":"Smiths Falls","country":"CA","lat":44.9458,"lon":-75.9406},{"iata":"YSJ","icao":"CYSJ","name":"Saint John Airport","city":"Saint John","country":"CA","lat":45.3161,"lon":-65.8903},{"iata":"YSL","icao":"CYSL","name":"Saint-Léonard Airport","city":"Saint-Léonard","country":"CA","lat":47.1571,"lon":-67.8362},{"iata":"YSM","icao":"CYSM","name":"Fort Smith Airport","city":"Fort Smith","country":"CA","lat":60.0203,"lon":-111.962},{"iata":"YCM","icao":"CYSN","name":"Niagara District Airport","city":"Niagara-on-the-Lake","country":"CA","lat":43.1916,"lon":-79.1717},{"iata":"YSP","icao":"CYSP","name":"Marathon Airport","city":"Marathon","country":"CA","lat":48.7553,"lon":-86.3444},{"iata":"YSU","icao":"CYSU","name":"Summerside Airport","city":"Slemon Park","country":"CA","lat":46.4406,"lon":-63.8336},{"iata":"YTA","icao":"CYTA","name":"Pembroke Airport","city":"Pembroke","country":"CA","lat":45.8644,"lon":-77.2517},{"iata":"YTF","icao":"CYTF","name":"Alma Airport","city":"Alma","country":"CA","lat":48.5089,"lon":-71.6419},{"iata":"YTH","icao":"CYTH","name":"Thompson Airport","city":"Thompson","country":"CA","lat":55.8011,"lon":-97.8642},{"iata":"YTR","icao":"CYTR","name":"CFB Trenton","city":"Trenton","country":"CA","lat":44.1189,"lon":-77.5281},{"iata":"YTS","icao":"CYTS","name":"Timmins/Victor M. Power","city":"Timmins","country":"CA","lat":48.5697,"lon":-81.3767},{"iata":"YTZ","icao":"CYTZ","name":"Billy Bishop Toronto City Airport","city":"Toronto","country":"CA","lat":43.6279,"lon":-79.3955},{"iata":"YUL","icao":"CYUL","name":"Montreal / Pierre Elliott Trudeau International Airport","city":"Montréal","country":"CA","lat":45.4678,"lon":-73.7423},{"iata":"YUX","icao":"CYUX","name":"Hall Beach Airport","city":"Sanirajak","country":"CA","lat":68.7761,"lon":-81.2425},{"iata":"YUY","icao":"CYUY","name":"Rouyn Noranda Airport","city":"Rouyn-Noranda","country":"CA","lat":48.2061,"lon":-78.8356},{"iata":"YVB","icao":"CYVB","name":"Bonaventure Airport","city":"Bonaventure","country":"CA","lat":48.0711,"lon":-65.4603},{"iata":"YVC","icao":"CYVC","name":"La Ronge Airport","city":"La Ronge","country":"CA","lat":55.1514,"lon":-105.262},{"iata":"YVE","icao":"CYVK","name":"Vernon Regional Airport","city":"Vernon","country":"CA","lat":50.2462,"lon":-119.331},{"iata":"YVO","icao":"CYVO","name":"Val-d'Or Airport","city":"Val-d'Or","country":"CA","lat":48.0533,"lon":-77.7828},{"iata":"YVP","icao":"CYVP","name":"Kuujjuaq Airport","city":"Kuujjuaq","country":"CA","lat":58.0961,"lon":-68.4269},{"iata":"YVQ","icao":"CYVQ","name":"Norman Wells Airport","city":"Norman Wells","country":"CA","lat":65.2816,"lon":-126.798},{"iata":"YVR","icao":"CYVR","name":"Vancouver International Airport","city":"Vancouver","country":"CA","lat":49.1939,"lon":-123.184},{"iata":"YVV","icao":"CYVV","name":"Wiarton Airport","city":"Wiarton","country":"CA","lat":44.7458,"lon":-81.1072},{"iata":"YWG","icao":"CYWG","name":"Winnipeg / James Armstrong Richardson International Airport","city":"Winnipeg","country":"CA","lat":49.91,"lon":-97.2399},{"iata":"YWK","icao":"CYWK","name":"Wabush Airport","city":"Wabush","country":"CA","lat":52.9219,"lon":-66.8644},{"iata":"YWL","icao":"CYWL","name":"Williams Lake Airport","city":"Williams Lake","country":"CA","lat":52.1831,"lon":-122.054},{"iata":"YWY","icao":"CYWY","name":"Wrigley Airport","city":"Wrigley","country":"CA","lat":63.2094,"lon":-123.437},{"iata":"YXC","icao":"CYXC","name":"Cranbrook/Canadian Rockies International Airport","city":"Cranbrook","country":"CA","lat":49.6108,"lon":-115.782},{"iata":"YXE","icao":"CYXE","name":"Saskatoon John G. Diefenbaker International Airport","city":"Saskatoon","country":"CA","lat":52.1707,"lon":-106.7008},{"iata":"YXH","icao":"CYXH","name":"Medicine Hat Regional Airport","city":"Medicine Hat","country":"CA","lat":50.0189,"lon":-110.721},{"iata":"YXJ","icao":"CYXJ","name":"Fort St John / North Peace Regional Airport","city":"Fort Saint John","country":"CA","lat":56.2381,"lon":-120.74},{"iata":"YXK","icao":"CYXK","name":"Rimouski Airport","city":"Rimouski","country":"CA","lat":48.4776,"lon":-68.4963},{"iata":"YXL","icao":"CYXL","name":"Sioux Lookout Airport","city":"Sioux Lookout","country":"CA","lat":50.1139,"lon":-91.9053},{"iata":"YXQ","icao":"CYXQ","name":"Beaver Creek Airport","city":"Beaver Creek","country":"CA","lat":62.4103,"lon":-140.867},{"iata":"YXR","icao":"CYXR","name":"Earlton (Timiskaming Regional) Airport","city":"Earlton","country":"CA","lat":47.6974,"lon":-79.8473},{"iata":"YXS","icao":"CYXS","name":"Prince George (International) Airport","city":"Prince George","country":"CA","lat":53.8843,"lon":-122.6666},{"iata":"YXT","icao":"CYXT","name":"Northwest Regional Airport Terrace-Kitimat","city":"Terrace","country":"CA","lat":54.4685,"lon":-128.576},{"iata":"YXU","icao":"CYXU","name":"London International Airport","city":"London","country":"CA","lat":43.0328,"lon":-81.149},{"iata":"YXX","icao":"CYXX","name":"Abbotsford International Airport","city":"Abbotsford","country":"CA","lat":49.0253,"lon":-122.361},{"iata":"YXY","icao":"CYXY","name":"Whitehorse / Erik Nielsen International Airport","city":"Whitehorse","country":"CA","lat":60.7085,"lon":-135.0657},{"iata":"YXZ","icao":"CYXZ","name":"Wawa Airport","city":"Wawa","country":"CA","lat":47.9667,"lon":-84.7867},{"iata":"YYB","icao":"CYYB","name":"North Bay Jack Garland Airport","city":"North Bay","country":"CA","lat":46.3636,"lon":-79.4228},{"iata":"YYC","icao":"CYYC","name":"Calgary International Airport","city":"Calgary","country":"CA","lat":51.1188,"lon":-114.0099},{"iata":"YYD","icao":"CYYD","name":"Smithers Airport","city":"Smithers","country":"CA","lat":54.8247,"lon":-127.183},{"iata":"YYE","icao":"CYYE","name":"Fort Nelson Airport","city":"Fort Nelson","country":"CA","lat":58.8364,"lon":-122.597},{"iata":"YYF","icao":"CYYF","name":"Penticton Airport","city":"Penticton","country":"CA","lat":49.4631,"lon":-119.602},{"iata":"YYG","icao":"CYYG","name":"Charlottetown Airport","city":"Charlottetown","country":"CA","lat":46.2889,"lon":-63.1252},{"iata":"YYJ","icao":"CYYJ","name":"Victoria International Airport","city":"Victoria","country":"CA","lat":48.6472,"lon":-123.4278},{"iata":"YYL","icao":"CYYL","name":"Lynn Lake Airport","city":"Lynn Lake","country":"CA","lat":56.8639,"lon":-101.076},{"iata":"YYN","icao":"CYYN","name":"Swift Current Airport","city":"Swift Current","country":"CA","lat":50.2919,"lon":-107.691},{"iata":"YYQ","icao":"CYYQ","name":"Churchill Airport","city":"Churchill","country":"CA","lat":58.7392,"lon":-94.065},{"iata":"YYR","icao":"CYYR","name":"Goose Bay Airport","city":"Goose Bay","country":"CA","lat":53.3192,"lon":-60.4258},{"iata":"YYT","icao":"CYYT","name":"St. John's International Airport","city":"St. John's","country":"CA","lat":47.6186,"lon":-52.7519},{"iata":"YYU","icao":"CYYU","name":"Kapuskasing Airport","city":"Kapuskasing","country":"CA","lat":49.4116,"lon":-82.4696},{"iata":"YYW","icao":"CYYW","name":"Armstrong Airport","city":"Armstrong","country":"CA","lat":50.2903,"lon":-88.9097},{"iata":"YYY","icao":"CYYY","name":"Mont Joli Airport","city":"Mont-Joli","country":"CA","lat":48.6086,"lon":-68.2081},{"iata":"YYZ","icao":"CYYZ","name":"Toronto Pearson International Airport","city":"Toronto","country":"CA","lat":43.6759,"lon":-79.6294},{"iata":"YZE","icao":"CYZE","name":"Gore Bay Manitoulin Airport","city":"Gore Bay","country":"CA","lat":45.8853,"lon":-82.5678},{"iata":"YZF","icao":"CYZF","name":"Yellowknife International Airport","city":"Yellowknife","country":"CA","lat":62.4628,"lon":-114.44},{"iata":"YZH","icao":"CYZH","name":"Slave Lake Airport","city":"Slave Lake","country":"CA","lat":55.2929,"lon":-114.7773},{"iata":"YZP","icao":"CYZP","name":"Sandspit Airport","city":"Sandspit","country":"CA","lat":53.2543,"lon":-131.814},{"iata":"YZR","icao":"CYZR","name":"Chris Hadfield Airport","city":"Sarnia","country":"CA","lat":42.9994,"lon":-82.3089},{"iata":"YZS","icao":"CYZS","name":"Coral Harbour Airport","city":"Coral Harbour","country":"CA","lat":64.1933,"lon":-83.3594},{"iata":"YZT","icao":"CYZT","name":"Port Hardy Airport","city":"Port Hardy","country":"CA","lat":50.6806,"lon":-127.367},{"iata":"YZU","icao":"CYZU","name":"Whitecourt Airport","city":"Whitecourt","country":"CA","lat":54.1439,"lon":-115.787},{"iata":"YZV","icao":"CYZV","name":"Sept-Îles Airport","city":"Sept-Îles","country":"CA","lat":50.2233,"lon":-66.2656},{"iata":"YZW","icao":"CYZW","name":"Teslin Airport","city":"Teslin","country":"CA","lat":60.1728,"lon":-132.743},{"iata":"YZX","icao":"CYZX","name":"CFB Greenwood","city":"Greenwood","country":"CA","lat":44.9844,"lon":-64.9169},{"iata":"YSN","icao":"CZAM","name":"Shuswap Regional Airport","city":"Salmon Arm","country":"CA","lat":50.6828,"lon":-119.229},{"iata":"YDT","icao":"CZBB","name":"Boundary Bay Airport","city":"Delta","country":"CA","lat":49.0743,"lon":-123.0069},{"iata":"ZBF","icao":"CZBF","name":"Bathurst Airport","city":"South Tetagouche","country":"CA","lat":47.6297,"lon":-65.7389},{"iata":"ZBM","icao":"CZBM","name":"Bromont (Roland Désourdy) Airport","city":"Bromont","country":"CA","lat":45.2908,"lon":-72.7414},{"iata":"KES","icao":"CZEE","name":"Kelsey Airport","city":"Kelsey","country":"CA","lat":56.0375,"lon":-96.5097},{"iata":"ZFA","icao":"CZFA","name":"Faro Airport","city":"Faro","country":"CA","lat":62.2075,"lon":-133.376},{"iata":"ZGF","icao":"CZGF","name":"Grand Forks Airport","city":"Grand Forks","country":"CA","lat":49.0156,"lon":-118.431},{"iata":"ZJG","icao":"CZJG","name":"Jenpeg Airport","city":"Jenpeg","country":"CA","lat":54.5189,"lon":-98.0461},{"iata":"ZJN","icao":"CZJN","name":"Swan River Airport","city":"Swan River","country":"CA","lat":52.1206,"lon":-101.236},{"iata":"YTD","icao":"CZLQ","name":"Thicket Portage Airport","city":"Thicket Portage","country":"CA","lat":55.3189,"lon":-97.7078},{"iata":"PIW","icao":"CZMN","name":"Pikwitonei Airport","city":"Pikwitonei","country":"CA","lat":55.5889,"lon":-97.1642},{"iata":"ZMT","icao":"CZMT","name":"Masset Airport","city":"Masset","country":"CA","lat":54.0275,"lon":-132.125},{"iata":"WPC","icao":"CZPC","name":"Pincher Creek Airport","city":"Pincher Creek","country":"CA","lat":49.5204,"lon":-113.997},{"iata":"ZSJ","icao":"CZSJ","name":"Sandy Lake Airport","city":"Sandy Lake","country":"CA","lat":53.0642,"lon":-93.3444},{"iata":"ZST","icao":"CZST","name":"Stewart Airport","city":"Stewart","country":"CA","lat":55.9354,"lon":-129.9824},{"iata":"ZUC","icao":"CZUC","name":"Ignace Municipal Airport","city":"Ignace","country":"CA","lat":49.4282,"lon":-91.7204},{"iata":"BUJ","icao":"DAAD","name":"Bou Saada Airport","city":"Ouled Sidi Brahim","country":"DZ","lat":35.3325,"lon":4.2064},{"iata":"BJA","icao":"DAAE","name":"Soummam–Abane Ramdane Airport","city":"Béjaïa","country":"DZ","lat":36.7125,"lon":5.0699},{"iata":"ALG","icao":"DAAG","name":"Houari Boumediene Airport","city":"Algiers","country":"DZ","lat":36.6939,"lon":3.2145},{"iata":"DJG","icao":"DAAJ","name":"Tiska Djanet Airport","city":"Djanet","country":"DZ","lat":24.2854,"lon":9.4637},{"iata":"VVZ","icao":"DAAP","name":"Illizi Takhamalt Airport","city":"Illizi","country":"DZ","lat":26.7235,"lon":8.6227},{"iata":"QSF","icao":"DAAS","name":"Ain Arnat Airport","city":"Sétif","country":"DZ","lat":36.1785,"lon":5.3299},{"iata":"TMR","icao":"DAAT","name":"Aguenar – Hadj Bey Akhamok Airport","city":"Tamanrasset","country":"DZ","lat":22.811,"lon":5.4508},{"iata":"GJL","icao":"DAAV","name":"Jijel Ferhat Abbas Airport","city":"Tahir","country":"DZ","lat":36.7941,"lon":5.8737},{"iata":"MZW","icao":"DAAY","name":"Mecheria Airport","city":"Mecheria","country":"DZ","lat":33.5359,"lon":-0.2424},{"iata":"AAE","icao":"DABB","name":"Annaba Rabah Bitat Airport","city":"Annaba","country":"DZ","lat":36.8268,"lon":7.8133},{"iata":"CZL","icao":"DABC","name":"Mohamed Boudiaf International Airport","city":"Constantine","country":"DZ","lat":36.276,"lon":6.6204},{"iata":"TEE","icao":"DABS","name":"Cheikh Larbi Tébessi Airport","city":"Tébessi","country":"DZ","lat":35.4316,"lon":8.1207},{"iata":"BLJ","icao":"DABT","name":"Batna Mostefa Ben Boulaid Airport","city":"Batna","country":"DZ","lat":35.7521,"lon":6.3086},{"iata":"HRM","icao":"DAFH","name":"Hassi R'Mel Airport","city":"Hassi R'Mel","country":"DZ","lat":32.9304,"lon":3.3115},{"iata":"TID","icao":"DAOB","name":"Abdelhafid Boussouf Bou Chekif Airport","city":"Tiaret","country":"DZ","lat":35.3411,"lon":1.4632},{"iata":"TIN","icao":"DAOF","name":"Tindouf Airport","city":"Tindouf","country":"DZ","lat":27.7004,"lon":-8.1671},{"iata":"CFK","icao":"DAOI","name":"Chlef Aboubakr Belkaid International Airport","city":"Chlef","country":"DZ","lat":36.2166,"lon":1.3411},{"iata":"TAF","icao":"DAOL","name":"Oran Tafraoui Airport","city":"Tafraoui","country":"DZ","lat":35.5424,"lon":-0.5323},{"iata":"TLM","icao":"DAON","name":"Zenata – Messali El Hadj Airport","city":"Zenata","country":"DZ","lat":35.0127,"lon":-1.4571},{"iata":"ORN","icao":"DAOO","name":"Oran Es-Sénia (Ahmed Ben Bella) International Airport","city":"Es-Sénia","country":"DZ","lat":35.6206,"lon":-0.6225},{"iata":"CBH","icao":"DAOR","name":"Béchar Boudghene Ben Ali Lotfi Airport","city":"Béchar","country":"DZ","lat":31.6457,"lon":-2.2699},{"iata":"MUW","icao":"DAOV","name":"Ghriss Airport","city":"Ghriss","country":"DZ","lat":35.2077,"lon":0.1471},{"iata":"BMW","icao":"DATM","name":"Bordj Badji Mokhtar Airport","city":"Bordj Badji Mokhtar","country":"DZ","lat":21.3778,"lon":0.927},{"iata":"AZR","icao":"DAUA","name":"Touat-Cheikh Sidi Mohamed Belkebir Airport","city":"Adrar","country":"DZ","lat":27.8376,"lon":-0.1864},{"iata":"BSK","icao":"DAUB","name":"Biskra - Mohamed Khider Airport","city":"Biskra","country":"DZ","lat":34.7932,"lon":5.7389},{"iata":"ELG","icao":"DAUE","name":"El Golea Airport","city":"El Menia","country":"DZ","lat":30.5807,"lon":2.8616},{"iata":"GHA","icao":"DAUG","name":"Noumérat - Moufdi Zakaria Airport","city":"El Atteuf","country":"DZ","lat":32.3841,"lon":3.7941},{"iata":"HME","icao":"DAUH","name":"Hassi Messaoud-Oued Irara Krim Belkacem Airport","city":"Hassi Messaoud","country":"DZ","lat":31.673,"lon":6.1404},{"iata":"INZ","icao":"DAUI","name":"In Salah Airport","city":"In Salah","country":"DZ","lat":27.251,"lon":2.512},{"iata":"TGR","icao":"DAUK","name":"Touggourt Sidi Madhi Airport","city":"Touggourt","country":"DZ","lat":33.0678,"lon":6.0887},{"iata":"LOO","icao":"DAUL","name":"Laghouat - Molay Ahmed Medeghri Airport","city":"Laghouat","country":"DZ","lat":33.7644,"lon":2.9283},{"iata":"ELU","icao":"DAUO","name":"Guemar Airport - مطار قمار بالوادي","city":"Guemar","country":"DZ","lat":33.5114,"lon":6.7768},{"iata":"TMX","icao":"DAUT","name":"Timimoun Airport","city":"Timimoun","country":"DZ","lat":29.2371,"lon":0.276},{"iata":"OGX","icao":"DAUU","name":"Ain Beida Airport","city":"Ouargla","country":"DZ","lat":31.9172,"lon":5.4128},{"iata":"IAM","icao":"DAUZ","name":"Zarzaitine - In Aménas Airport","city":"In Aménas","country":"DZ","lat":28.0515,"lon":9.6429},{"iata":"COO","icao":"DBBB","name":"Cotonou Cadjehoun International Airport","city":"Cotonou","country":"BJ","lat":6.3572,"lon":2.3844},{"iata":"OUA","icao":"DFFD","name":"Ouagadougou Thomas Sankara International Airport","city":"Ouagadougou","country":"BF","lat":12.3532,"lon":-1.5124},{"iata":"BOY","icao":"DFOO","name":"Bobo Dioulasso Airport","city":"Bobo Dioulasso","country":"BF","lat":11.1601,"lon":-4.331},{"iata":"ACC","icao":"DGAA","name":"Kotoka International Airport","city":"Accra","country":"GH","lat":5.6052,"lon":-0.1668},{"iata":"TML","icao":"DGLE","name":"Yakubu Tali International Airport","city":"Tamale","country":"GH","lat":9.5539,"lon":-0.8661},{"iata":"KMS","icao":"DGSI","name":"Prempeh I International Airport","city":"Kumasi","country":"GH","lat":6.7146,"lon":-1.5908},{"iata":"NYI","icao":"DGSN","name":"Sunyani Airport","city":"Sunyani","country":"GH","lat":7.3618,"lon":-2.3288},{"iata":"TKD","icao":"DGTK","name":"Takoradi Airport","city":"Sekondi-Takoradi","country":"GH","lat":4.8961,"lon":-1.7748},{"iata":"ABJ","icao":"DIAP","name":"Félix-Houphouët-Boigny International Airport","city":"Abidjan","country":"CI","lat":5.2614,"lon":-3.9263},{"iata":"BYK","icao":"DIBK","name":"Bouaké Airport","city":"Bouaké","country":"CI","lat":7.7388,"lon":-5.0737},{"iata":"DJO","icao":"DIDL","name":"Daloa Airport","city":"","country":"CI","lat":6.7928,"lon":-6.4732},{"iata":"HGO","icao":"DIKO","name":"Korhogo Airport","city":"Korhogo","country":"CI","lat":9.3872,"lon":-5.5567},{"iata":"MJC","icao":"DIMN","name":"Man Airport","city":"","country":"CI","lat":7.2721,"lon":-7.5874},{"iata":"SPY","icao":"DISP","name":"San Pedro Airport","city":"","country":"CI","lat":4.7467,"lon":-6.6608},{"iata":"ASK","icao":"DIYO","name":"Yamoussoukro International Airport","city":"Yamoussoukro","country":"CI","lat":6.9032,"lon":-5.3656},{"iata":"DKA","icao":"DN57","name":"Umaru Musa Yar'adua Airport","city":"Katsina","country":"NG","lat":13.0078,"lon":7.6605},{"iata":"ABV","icao":"DNAA","name":"Nnamdi Azikiwe International Airport","city":"Abuja","country":"NG","lat":9.0068,"lon":7.2632},{"iata":"QUO","icao":"DNAI","name":"Akwa Ibom International Airport","city":"Uyo","country":"NG","lat":4.8725,"lon":8.093},{"iata":"AKR","icao":"DNAK","name":"Akure Airport","city":"Akure","country":"NG","lat":7.2467,"lon":5.301},{"iata":"ABB","icao":"DNAS","name":"Asaba International Airport","city":"Asaba","country":"NG","lat":6.2042,"lon":6.6653},{"iata":"BCU","icao":"DNBC","name":"Sir Abubakar Tafawa Balewa Bauchi State International Airport","city":"Bauchi","country":"NG","lat":10.4828,"lon":9.744},{"iata":"BNI","icao":"DNBE","name":"Benin Airport","city":"Benin","country":"NG","lat":6.317,"lon":5.5995},{"iata":"CBQ","icao":"DNCA","name":"Margaret Ekpo International Airport","city":"Calabar","country":"NG","lat":4.976,"lon":8.3472},{"iata":"ENU","icao":"DNEN","name":"Akanu Ibiam International Airport","city":"Enegu","country":"NG","lat":6.4737,"lon":7.5605},{"iata":"GMO","icao":"DNGO","name":"Gombe Lawanti International Airport","city":"Gombe","country":"NG","lat":10.2989,"lon":10.9},{"iata":"IBA","icao":"DNIB","name":"Ibadan Airport","city":"Ibadan","country":"NG","lat":7.3625,"lon":3.9783},{"iata":"ILR","icao":"DNIL","name":"General Tunde Idiagbon International Airport","city":"Ilorin/Ogbomosho","country":"NG","lat":8.4402,"lon":4.4939},{"iata":"QOW","icao":"DNIM","name":"Sam Mbakwe International Cargo Airport","city":"Owerri","country":"NG","lat":5.4271,"lon":7.206},{"iata":"JOS","icao":"DNJO","name":"Yakubu Gowon Airport","city":"Jos","country":"NG","lat":9.6398,"lon":8.8691},{"iata":"KAD","icao":"DNKA","name":"Kaduna International Airport","city":"Kaduna","country":"NG","lat":10.696,"lon":7.3201},{"iata":"KAN","icao":"DNKN","name":"Mallam Aminu Kano International Airport","city":"Kano","country":"NG","lat":12.0456,"lon":8.5236},{"iata":"MIU","icao":"DNMA","name":"Maiduguri International Airport","city":"Maiduguri","country":"NG","lat":11.8542,"lon":13.0807},{"iata":"MDI","icao":"DNMK","name":"Makurdi Airport","city":"Makurdi","country":"NG","lat":7.7039,"lon":8.6139},{"iata":"LOS","icao":"DNMM","name":"Murtala Muhammed International Airport","city":"Lagos","country":"NG","lat":6.5774,"lon":3.3212},{"iata":"MXJ","icao":"DNMN","name":"Minna Airport","city":"Minna","country":"NG","lat":9.6522,"lon":6.4623},{"iata":"PHC","icao":"DNPO","name":"Port Harcourt International Airport","city":"Port Harcourt","country":"NG","lat":5.0155,"lon":6.9496},{"iata":"SKO","icao":"DNSO","name":"Sadiq Abubakar III International Airport","city":"Sokoto","country":"NG","lat":12.9157,"lon":5.2075},{"iata":"QRW","icao":"DNSU","name":"Warri Airport","city":"Okpe","country":"NG","lat":5.5982,"lon":5.8187},{"iata":"YOL","icao":"DNYO","name":"Yola Airport","city":"Yola","country":"NG","lat":9.2576,"lon":12.4304},{"iata":"ZAR","icao":"DNZA","name":"Zaria Airport","city":"Zaria","country":"NG","lat":11.1302,"lon":7.6858},{"iata":"MFQ","icao":"DRRM","name":"Maradi Airport","city":"Maradi","country":"NE","lat":13.5025,"lon":7.1268},{"iata":"NIM","icao":"DRRN","name":"Diori Hamani International Airport","city":"Niamey","country":"NE","lat":13.4815,"lon":2.1836},{"iata":"THZ","icao":"DRRT","name":"Tahoua Airport","city":"Tahoua","country":"NE","lat":14.8757,"lon":5.2654},{"iata":"AJY","icao":"DRZA","name":"Mano Dayak International Airport","city":"Agadez","country":"NE","lat":16.966,"lon":8.0001},{"iata":"ZND","icao":"DRZR","name":"Zinder Airport","city":"Zinder","country":"NE","lat":13.779,"lon":8.9838},{"iata":"TBJ","icao":"DTKA","name":"Tabarka-Aïn Draham International Airport","city":"Tabarka","country":"TN","lat":36.98,"lon":8.8769},{"iata":"MIR","icao":"DTMB","name":"Monastir Habib Bourguiba International Airport","city":"Monastir","country":"TN","lat":35.7581,"lon":10.7547},{"iata":"NBE","icao":"DTNH","name":"Enfidha - Hammamet International Airport","city":"Enfidha","country":"TN","lat":36.0758,"lon":10.4386},{"iata":"TUN","icao":"DTTA","name":"Tunis Carthage International Airport","city":"Tunis","country":"TN","lat":36.851,"lon":10.2272},{"iata":"GAF","icao":"DTTF","name":"Gafsa Ksar International Airport","city":"Gafsa","country":"TN","lat":34.422,"lon":8.8225},{"iata":"GAE","icao":"DTTG","name":"Gabès Matmata International Airport","city":"Gabès","country":"TN","lat":33.7337,"lon":9.9194},{"iata":"DJE","icao":"DTTJ","name":"Djerba Zarzis International Airport","city":"Mellita","country":"TN","lat":33.8737,"lon":10.7773},{"iata":"EBM","icao":"DTTR","name":"El Borma Airport","city":"El Borma","country":"TN","lat":31.7043,"lon":9.2546},{"iata":"SFA","icao":"DTTX","name":"Sfax Thyna International Airport","city":"Sfax","country":"TN","lat":34.718,"lon":10.691},{"iata":"TOE","icao":"DTTZ","name":"Tozeur Nefta International Airport","city":"Tozeur","country":"TN","lat":33.9397,"lon":8.1106},{"iata":"LRL","icao":"DXNG","name":"Niamtougou International Airport","city":"Niamtougou","country":"TG","lat":9.7667,"lon":1.0909},{"iata":"LFW","icao":"DXXX","name":"Lomé–Tokoin International Airport","city":"Lomé","country":"TG","lat":6.1656,"lon":1.2545},{"iata":"ANR","icao":"EBAW","name":"Antwerp International Airport (Deurne)","city":"Antwerp","country":"BE","lat":51.1907,"lon":4.4632},{"iata":"BRU","icao":"EBBR","name":"Brussels Airport","city":"Zaventem","country":"BE","lat":50.9014,"lon":4.4844},{"iata":"CRL","icao":"EBCI","name":"Brussels South Charleroi Airport","city":"Charleroi","country":"BE","lat":50.462,"lon":4.4596},{"iata":"KJK","icao":"EBKT","name":"Flanders International Airport Kortrijk-Wevelgem","city":"Wevelgem","country":"BE","lat":50.8189,"lon":3.2096},{"iata":"LGG","icao":"EBLG","name":"Liège Airport","city":"Grâce-Hollogne","country":"BE","lat":50.6386,"lon":5.4439},{"iata":"OST","icao":"EBOS","name":"Ostend-Bruges International Airport","city":"Oostende","country":"BE","lat":51.1998,"lon":2.8747},{"iata":"AOC","icao":"EDAC","name":"Leipzig–Altenburg Airport","city":"Nobitz","country":"DE","lat":50.9819,"lon":12.5064},{"iata":"HDF","icao":"EDAH","name":"Heringsdorf Airport","city":"Zirchow","country":"DE","lat":53.8787,"lon":14.1523},{"iata":"FNB","icao":"EDBN","name":"Neubrandenburg Trollenhagen Airport","city":"Trollenhagen","country":"DE","lat":53.6022,"lon":13.306},{"iata":"BER","icao":"EDDB","name":"Berlin Brandenburg Airport","city":"Berlin","country":"DE","lat":52.3617,"lon":13.5023},{"iata":"DRS","icao":"EDDC","name":"Dresden Airport","city":"Dresden","country":"DE","lat":51.1341,"lon":13.7678},{"iata":"ERF","icao":"EDDE","name":"Erfurt-Weimar Airport","city":"Erfurt","country":"DE","lat":50.9783,"lon":10.9607},{"iata":"FRA","icao":"EDDF","name":"Frankfurt Main Airport","city":"Frankfurt am Main","country":"DE","lat":50.0267,"lon":8.5584},{"iata":"FMO","icao":"EDDG","name":"Münster Osnabrück Airport","city":"Greven","country":"DE","lat":52.1338,"lon":7.6885},{"iata":"HAM","icao":"EDDH","name":"Hamburg Helmut Schmidt Airport","city":"Hamburg","country":"DE","lat":53.6304,"lon":9.9882},{"iata":"CGN","icao":"EDDK","name":"Cologne Bonn Airport","city":"Köln (Cologne)","country":"DE","lat":50.8659,"lon":7.1427},{"iata":"DUS","icao":"EDDL","name":"Düsseldorf Airport","city":"Düsseldorf","country":"DE","lat":51.2895,"lon":6.7668},{"iata":"MUC","icao":"EDDM","name":"Munich Airport","city":"Munich","country":"DE","lat":48.3538,"lon":11.7861},{"iata":"NUE","icao":"EDDN","name":"Nuremberg Airport","city":"Nuremberg","country":"DE","lat":49.4987,"lon":11.0781},{"iata":"LEJ","icao":"EDDP","name":"Leipzig/Halle Airport","city":"Schkeuditz","country":"DE","lat":51.4207,"lon":12.2327},{"iata":"SCN","icao":"EDDR","name":"Saarbrücken Airport","city":"Saarbrücken","country":"DE","lat":49.2145,"lon":7.1097},{"iata":"STR","icao":"EDDS","name":"Stuttgart Airport","city":"Stuttgart","country":"DE","lat":48.6899,"lon":9.222},{"iata":"HAJ","icao":"EDDV","name":"Hannover Airport","city":"Hannover","country":"DE","lat":52.4611,"lon":9.6851},{"iata":"BRE","icao":"EDDW","name":"Bremen Airport","city":"Bremen","country":"DE","lat":53.0468,"lon":8.7893},{"iata":"HHN","icao":"EDFH","name":"Frankfurt-Hahn Airport","city":"Frankfurt am Main (Lautzenhausen)","country":"DE","lat":49.9464,"lon":7.2617},{"iata":"MHG","icao":"EDFM","name":"Mannheim-City Airport","city":"Mannheim","country":"DE","lat":49.4731,"lon":8.5142},{"iata":"EIB","icao":"EDGE","name":"Eisenach-Kindel Airport","city":"Hörselberg-Hainich","country":"DE","lat":50.9916,"lon":10.4797},{"iata":"SGE","icao":"EDGS","name":"Siegerland Airport","city":"Burbach","country":"DE","lat":50.7077,"lon":8.083},{"iata":"XFW","icao":"EDHI","name":"Hamburg-Finkenwerder Airport","city":"Hamburg","country":"DE","lat":53.5353,"lon":9.8356},{"iata":"KEL","icao":"EDHK","name":"Kiel-Holtenau Airport","city":"Kiel","country":"DE","lat":54.3796,"lon":10.1453},{"iata":"LBC","icao":"EDHL","name":"Lübeck Blankensee Airport","city":"Lübeck","country":"DE","lat":53.8054,"lon":10.7192},{"iata":"FMM","icao":"EDJA","name":"Memmingen Allgau Airport","city":"Memmingen","country":"DE","lat":47.9881,"lon":10.2382},{"iata":"BFE","icao":"EDLI","name":"Bielefeld Airport","city":"Bielefeld","country":"DE","lat":51.9647,"lon":8.5444},{"iata":"MGL","icao":"EDLN","name":"Mönchengladbach Airport","city":"Mönchengladbach","country":"DE","lat":51.2303,"lon":6.5044},{"iata":"PAD","icao":"EDLP","name":"Paderborn Lippstadt Airport","city":"Büren","country":"DE","lat":51.6125,"lon":8.6175},{"iata":"NRN","icao":"EDLV","name":"Weeze (Niederrhein) Airport","city":"Weeze","country":"DE","lat":51.6014,"lon":6.1412},{"iata":"DTM","icao":"EDLW","name":"Dortmund Airport","city":"Dortmund","country":"DE","lat":51.5183,"lon":7.6122},{"iata":"AGB","icao":"EDMA","name":"Augsburg Airport","city":"Augsburg","country":"DE","lat":48.4253,"lon":10.9317},{"iata":"OBF","icao":"EDMO","name":"Oberpfaffenhofen Airport","city":"Weßling","country":"DE","lat":48.0814,"lon":11.2831},{"iata":"FDH","icao":"EDNY","name":"Bodensee Airport Friedrichshafen","city":"Friedrichshafen","country":"DE","lat":47.6713,"lon":9.5115},{"iata":"BYU","icao":"EDQD","name":"Bayreuth Airport","city":"Bindlach","country":"DE","lat":49.985,"lon":11.64},{"iata":"HOQ","icao":"EDQM","name":"Hof-Plauen Airport","city":"Hof","country":"DE","lat":50.2885,"lon":11.8529},{"iata":"FKB","icao":"EDSB","name":"Karlsruhe Baden-Baden Airport","city":"Rheinmünster","country":"DE","lat":48.7794,"lon":8.0805},{"iata":"LHA","icao":"EDTL","name":"Lahr Airport","city":"Lahr/Schwarzwald","country":"DE","lat":48.3693,"lon":7.8277},{"iata":"BWE","icao":"EDVE","name":"Braunschweig-Wolfsburg Airport","city":"Braunschweig","country":"DE","lat":52.3192,"lon":10.5561},{"iata":"KSF","icao":"EDVK","name":"Kassel Airport","city":"Calden","country":"DE","lat":51.4184,"lon":9.3916},{"iata":"GWT","icao":"EDXW","name":"Westerland Sylt Airport","city":"Sylt","country":"DE","lat":54.9132,"lon":8.3405},{"iata":"KDL","icao":"EEKA","name":"Kärdla Airport","city":"Kärdla","country":"EE","lat":58.9908,"lon":22.8307},{"iata":"URE","icao":"EEKE","name":"Kuressaare Airport","city":"Kuressaare","country":"EE","lat":58.2299,"lon":22.5095},{"iata":"EPU","icao":"EEPU","name":"Pärnu Airport","city":"Pärnu","country":"EE","lat":58.419,"lon":24.4728},{"iata":"EES","icao":"EES","name":"Berenice International Airport / Banas Cape Air Base","city":"Berenice Troglodytica","country":"EG","lat":23.9804,"lon":35.4603},{"iata":"TLL","icao":"EETN","name":"Lennart Meri Tallinn Airport","city":"Tallinn","country":"EE","lat":59.4132,"lon":24.8326},{"iata":"TAY","icao":"EETU","name":"Tartu Airport","city":"Tartu","country":"EE","lat":58.3074,"lon":26.6865},{"iata":"ENF","icao":"EFET","name":"Enontekio Airport","city":"Enontekio","country":"FI","lat":68.3626,"lon":23.4243},{"iata":"KEV","icao":"EFHA","name":"Halli Airport","city":"Jämsä","country":"FI","lat":61.856,"lon":24.7867},{"iata":"HEL","icao":"EFHK","name":"Helsinki Vantaa Airport","city":"Helsinki (Vantaa)","country":"FI","lat":60.3184,"lon":24.9633},{"iata":"KTQ","icao":"EFIT","name":"Kitee Airport","city":"Kitee","country":"FI","lat":62.1661,"lon":30.0736},{"iata":"IVL","icao":"EFIV","name":"Ivalo Airport","city":"Ivalo","country":"FI","lat":68.6073,"lon":27.4053},{"iata":"JOE","icao":"EFJO","name":"Joensuu Airport","city":"Joensuu","country":"FI","lat":62.6588,"lon":29.6194},{"iata":"JYV","icao":"EFJY","name":"Jyväskylä Airport","city":"Jyväskylän Maalaiskunta","country":"FI","lat":62.3995,"lon":25.6783},{"iata":"KAU","icao":"EFKA","name":"Kauhava Airfield","city":"Kauhava","country":"FI","lat":63.1271,"lon":23.0514},{"iata":"KEM","icao":"EFKE","name":"Kemi-Tornio Airport","city":"Kemi / Tornio","country":"FI","lat":65.7787,"lon":24.5821},{"iata":"KAJ","icao":"EFKI","name":"Kajaani Airport","city":"Kajaani","country":"FI","lat":64.2855,"lon":27.6924},{"iata":"KHJ","icao":"EFKJ","name":"Kauhajoki Airfield","city":"Kauhajoki","country":"FI","lat":62.4632,"lon":22.3908},{"iata":"KOK","icao":"EFKK","name":"Kokkola-Pietarsaari Airport","city":"Kokkola / Kruunupyy","country":"FI","lat":63.7212,"lon":23.1431},{"iata":"KAO","icao":"EFKS","name":"Kuusamo Airport","city":"Kuusamo","country":"FI","lat":65.9876,"lon":29.2394},{"iata":"KTT","icao":"EFKT","name":"Kittilä International Airport","city":"Kittilä","country":"FI","lat":67.701,"lon":24.8468},{"iata":"KUO","icao":"EFKU","name":"Kuopio Airport","city":"Kuopio / Siilinjärvi","country":"FI","lat":63.0071,"lon":27.7978},{"iata":"LPP","icao":"EFLP","name":"Lappeenranta Airport","city":"Lappeenranta","country":"FI","lat":61.0446,"lon":28.1447},{"iata":"MHQ","icao":"EFMA","name":"Mariehamn Airport","city":"Mariehamn","country":"FI","lat":60.1222,"lon":19.8982},{"iata":"MIK","icao":"EFMI","name":"Mikkeli Airport","city":"Mikkeli","country":"FI","lat":61.6866,"lon":27.2018},{"iata":"OUL","icao":"EFOU","name":"Oulu Airport","city":"Oulu / Oulunsalo","country":"FI","lat":64.9301,"lon":25.3546},{"iata":"POR","icao":"EFPO","name":"Pori Airport","city":"Pori","country":"FI","lat":61.4617,"lon":21.8},{"iata":"RVN","icao":"EFRO","name":"Rovaniemi Airport","city":"Rovaniemi","country":"FI","lat":66.5633,"lon":25.8298},{"iata":"SVL","icao":"EFSA","name":"Savonlinna Airport","city":"Savonlinna","country":"FI","lat":61.9431,"lon":28.9451},{"iata":"SJY","icao":"EFSI","name":"Seinäjoki Airport","city":"Seinäjoki / Ilmajoki","country":"FI","lat":62.6921,"lon":22.8323},{"iata":"SOT","icao":"EFSO","name":"Sodankyla Airport","city":"Sodankyla","country":"FI","lat":67.395,"lon":26.6191},{"iata":"TMP","icao":"EFTP","name":"Tampere-Pirkkala Airport","city":"Tampere / Pirkkala","country":"FI","lat":61.4141,"lon":23.6044},{"iata":"TKU","icao":"EFTU","name":"Turku Airport","city":"Turku","country":"FI","lat":60.5141,"lon":22.2628},{"iata":"UTI","icao":"EFUT","name":"Utti Air Base","city":"Utti / Valkeala","country":"FI","lat":60.8964,"lon":26.9384},{"iata":"VAA","icao":"EFVA","name":"Vaasa Airport","city":"Vaasa","country":"FI","lat":63.0502,"lon":21.7625},{"iata":"VRK","icao":"EFVR","name":"Varkaus Airport","city":"Varkaus / Joroinen","country":"FI","lat":62.1711,"lon":27.8686},{"iata":"YLI","icao":"EFYL","name":"Ylivieska Airfield","city":"Ylivieska","country":"FI","lat":64.0547,"lon":24.7253},{"iata":"BFS","icao":"EGAA","name":"Belfast International Airport","city":"Belfast","country":"GB","lat":54.6575,"lon":-6.2158},{"iata":"ENK","icao":"EGAB","name":"Enniskillen/St Angelo Airport","city":"Enniskillen, Fermanagh and Omagh","country":"GB","lat":54.3983,"lon":-7.6512},{"iata":"BHD","icao":"EGAC","name":"George Best Belfast City Airport","city":"Belfast","country":"GB","lat":54.6181,"lon":-5.8725},{"iata":"LDY","icao":"EGAE","name":"City of Derry Airport","city":"Derry, Derry and Strabane","country":"GB","lat":55.0428,"lon":-7.1611},{"iata":"BHX","icao":"EGBB","name":"Birmingham Airport","city":"Birmingham, West Midlands","country":"GB","lat":52.4539,"lon":-1.748},{"iata":"CVT","icao":"EGBE","name":"Coventry Airport","city":"Coventry, West Midlands","country":"GB","lat":52.3697,"lon":-1.4797},{"iata":"GLO","icao":"EGBJ","name":"Gloucestershire Airport","city":"Staverton, Gloucestershire","country":"GB","lat":51.8942,"lon":-2.1672},{"iata":"NQT","icao":"EGBN","name":"Nottingham City Airport","city":"Nottingham, Nottinghamshire","country":"GB","lat":52.92,"lon":-1.0792},{"iata":"MAN","icao":"EGCC","name":"Manchester Airport","city":"Manchester, Greater Manchester","country":"GB","lat":53.3494,"lon":-2.2795},{"iata":"YEO","icao":"EGDY","name":"RNAS Yeovilton","city":"Yeovil, Somerset","country":"GB","lat":51.0094,"lon":-2.6388},{"iata":"CAL","icao":"EGEC","name":"Campbeltown Airport","city":"Campbeltown","country":"GB","lat":55.4372,"lon":-5.6864},{"iata":"EOI","icao":"EGED","name":"Eday Airport","city":"Eday","country":"GB","lat":59.1906,"lon":-2.7722},{"iata":"HAW","icao":"EGFE","name":"Haverfordwest Airport","city":"Haverfordwest","country":"GB","lat":51.8331,"lon":-4.9611},{"iata":"CWL","icao":"EGFF","name":"Cardiff International Airport","city":"Cardiff","country":"GB","lat":51.3967,"lon":-3.3433},{"iata":"SWS","icao":"EGFH","name":"Swansea Airport","city":"Swansea","country":"GB","lat":51.6014,"lon":-4.071},{"iata":"BRS","icao":"EGGD","name":"Bristol Airport","city":"Bristol","country":"GB","lat":51.3823,"lon":-2.7165},{"iata":"LPL","icao":"EGGP","name":"Liverpool John Lennon Airport","city":"Liverpool","country":"GB","lat":53.3349,"lon":-2.8496},{"iata":"LTN","icao":"EGGW","name":"London Luton Airport","city":"Luton, Luton","country":"GB","lat":51.8747,"lon":-0.3683},{"iata":"BOH","icao":"EGHH","name":"Bournemouth Airport","city":"Bournemouth","country":"GB","lat":50.7805,"lon":-1.8396},{"iata":"SOU","icao":"EGHI","name":"Southampton Airport","city":"Southampton","country":"GB","lat":50.9503,"lon":-1.3568},{"iata":"NQY","icao":"EGHQ","name":"Cornwall Airport Newquay","city":"Newquay","country":"GB","lat":50.4406,"lon":-4.9954},{"iata":"ACI","icao":"EGJA","name":"Alderney Airport","city":"Saint Anne","country":"GG","lat":49.7061,"lon":-2.2147},{"iata":"GCI","icao":"EGJB","name":"Guernsey Airport","city":"Saint Peter Port","country":"GG","lat":49.435,"lon":-2.602},{"iata":"JER","icao":"EGJJ","name":"Jersey Airport","city":"St. Peter","country":"JE","lat":49.2079,"lon":-2.1955},{"iata":"ESH","icao":"EGKA","name":"Brighton City Airport","city":"Brighton, East Sussex","country":"GB","lat":50.8356,"lon":-0.2972},{"iata":"BQH","icao":"EGKB","name":"London Biggin Hill Airport","city":"London","country":"GB","lat":51.3308,"lon":0.0325},{"iata":"LGW","icao":"EGKK","name":"London Gatwick Airport","city":"London","country":"GB","lat":51.1487,"lon":-0.1857},{"iata":"LCY","icao":"EGLC","name":"London City Airport","city":"London","country":"GB","lat":51.5053,"lon":0.0553},{"iata":"FAB","icao":"EGLF","name":"Farnborough Airport","city":"Farnborough, Hampshire","country":"GB","lat":51.2758,"lon":-0.7763},{"iata":"BBS","icao":"EGLK","name":"Blackbushe Airport","city":"Camberley, Surrey","country":"GB","lat":51.3239,"lon":-0.8475},{"iata":"LHR","icao":"EGLL","name":"London Heathrow Airport","city":"London","country":"GB","lat":51.4707,"lon":-0.4599},{"iata":"SEN","icao":"EGMC","name":"London Southend Airport","city":"Southend-on-Sea, Essex","country":"GB","lat":51.5706,"lon":0.6936},{"iata":"LYX","icao":"EGMD","name":"Lydd London Ashford Airport","city":"Romney Marsh, Kent","country":"GB","lat":50.9562,"lon":0.9391},{"iata":"CAX","icao":"EGNC","name":"Carlisle Lake District Airport","city":"Carlisle, Cumbria","country":"GB","lat":54.9375,"lon":-2.8092},{"iata":"BLK","icao":"EGNH","name":"Blackpool Airport","city":"Blackpool","country":"GB","lat":53.7717,"lon":-3.0286},{"iata":"HUY","icao":"EGNJ","name":"Humberside Airport","city":"Grimsby, Lincolnshire","country":"GB","lat":53.5762,"lon":-0.3495},{"iata":"BWF","icao":"EGNL","name":"Barrow Walney Island Airport","city":"Barrow-in-Furness","country":"GB","lat":54.1286,"lon":-3.2675},{"iata":"LBA","icao":"EGNM","name":"Leeds Bradford Airport","city":"Leeds, West Yorkshire","country":"GB","lat":53.8659,"lon":-1.6606},{"iata":"WRT","icao":"EGNO","name":"Warton Aerodrome","city":"Warton","country":"GB","lat":53.7451,"lon":-2.8831},{"iata":"CEG","icao":"EGNR","name":"Hawarden Airport","city":"Broughton","country":"GB","lat":53.1781,"lon":-2.9778},{"iata":"IOM","icao":"EGNS","name":"Isle of Man Airport","city":"Castletown","country":"IM","lat":54.0831,"lon":-4.6239},{"iata":"NCL","icao":"EGNT","name":"Newcastle International Airport","city":"Newcastle upon Tyne, Tyne and Wear","country":"GB","lat":55.038,"lon":-1.6896},{"iata":"MME","icao":"EGNV","name":"Teesside International Airport","city":"Darlington, Durham","country":"GB","lat":54.5092,"lon":-1.4294},{"iata":"EMA","icao":"EGNX","name":"East Midlands Airport","city":"Nottingham, Leicestershire","country":"GB","lat":52.8311,"lon":-1.3281},{"iata":"VLY","icao":"EGOV","name":"Anglesey Airport","city":"Angelsey","country":"GB","lat":53.2481,"lon":-4.5353},{"iata":"KOI","icao":"EGPA","name":"Kirkwall Airport","city":"Kirkwall, Orkney Islands","country":"GB","lat":58.9579,"lon":-2.9051},{"iata":"LSI","icao":"EGPB","name":"Sumburgh Airport","city":"Lerwick, Shetland","country":"GB","lat":59.8789,"lon":-1.2956},{"iata":"WIC","icao":"EGPC","name":"Wick John O'Groats Airport","city":"Wick","country":"GB","lat":58.4589,"lon":-3.0931},{"iata":"ABZ","icao":"EGPD","name":"Aberdeen International Airport","city":"Aberdeen","country":"GB","lat":57.2019,"lon":-2.1978},{"iata":"INV","icao":"EGPE","name":"Inverness Airport","city":"Inverness","country":"GB","lat":57.5425,"lon":-4.0475},{"iata":"GLA","icao":"EGPF","name":"Glasgow Airport","city":"Glasgow","country":"GB","lat":55.8719,"lon":-4.4331},{"iata":"EDI","icao":"EGPH","name":"Edinburgh Airport","city":"Edinburgh","country":"GB","lat":55.9501,"lon":-3.3723},{"iata":"ILY","icao":"EGPI","name":"Islay Airport","city":"Isle of Islay, Argyll and Bute","country":"GB","lat":55.6827,"lon":-6.2575},{"iata":"PIK","icao":"EGPK","name":"Glasgow Prestwick Airport","city":"Prestwick, South Ayrshire","country":"GB","lat":55.5015,"lon":-4.5772},{"iata":"BEB","icao":"EGPL","name":"Benbecula Airport","city":"Balivanich","country":"GB","lat":57.4811,"lon":-7.3628},{"iata":"DND","icao":"EGPN","name":"Dundee Airport","city":"Dundee","country":"GB","lat":56.4525,"lon":-3.0258},{"iata":"SYY","icao":"EGPO","name":"Stornoway Airport","city":"Stornoway, Western Isles","country":"GB","lat":58.2156,"lon":-6.3311},{"iata":"BRR","icao":"EGPR","name":"Barra Airport","city":"Eoligarry","country":"GB","lat":57.0228,"lon":-7.4431},{"iata":"TRE","icao":"EGPU","name":"Tiree Airport","city":"Balemartine, Argyll and Bute","country":"GB","lat":56.4992,"lon":-6.8692},{"iata":"ADX","icao":"EGQL","name":"Leuchars Station Airfield","city":"Leuchars, Fife","country":"GB","lat":56.374,"lon":-2.8689},{"iata":"LMO","icao":"EGQS","name":"RAF Lossiemouth","city":"Lossiemouth, Moray","country":"GB","lat":57.7052,"lon":-3.3392},{"iata":"CBG","icao":"EGSC","name":"Cambridge City Airport","city":"Cambridge, Cambridgeshire","country":"GB","lat":52.205,"lon":0.175},{"iata":"NWI","icao":"EGSH","name":"Norwich Airport","city":"Norwich, Norfolk","country":"GB","lat":52.6758,"lon":1.2828},{"iata":"STN","icao":"EGSS","name":"London Stansted Airport","city":"London, Essex","country":"GB","lat":51.885,"lon":0.235},{"iata":"EXT","icao":"EGTE","name":"Exeter International Airport","city":"Exeter, Devon","country":"GB","lat":50.7343,"lon":-3.414},{"iata":"OXF","icao":"EGTK","name":"London Oxford Airport","city":"Kidlington, Oxfordshire","country":"GB","lat":51.8369,"lon":-1.32},{"iata":"BEX","icao":"EGUB","name":"RAF Benson","city":"Wallingford, Oxfordshire","country":"GB","lat":51.6144,"lon":-1.096},{"iata":"LKZ","icao":"EGUL","name":"RAF Lakenheath","city":"Brandon, Suffolk","country":"GB","lat":52.4095,"lon":0.5612},{"iata":"MHZ","icao":"EGUN","name":"RAF Mildenhall","city":"Bury Saint Edmunds, Suffolk","country":"GB","lat":52.3619,"lon":0.4864},{"iata":"FFD","icao":"EGVA","name":"RAF Fairford","city":"Fairford, Gloucestershire","country":"GB","lat":51.6836,"lon":-1.7892},{"iata":"BZZ","icao":"EGVN","name":"RAF Brize Norton","city":"Carterton, Oxfordshire","country":"GB","lat":51.75,"lon":-1.5836},{"iata":"ODH","icao":"EGVO","name":"RAF Odiham","city":"Hook, Hampshire","country":"GB","lat":51.2341,"lon":-0.9428},{"iata":"NHT","icao":"EGWU","name":"RAF Northolt","city":"Northolt, Greater London","country":"GB","lat":51.553,"lon":-0.4182},{"iata":"QCY","icao":"EGXC","name":"RAF Coningsby","city":"Lincoln, Lincolnshire","country":"GB","lat":53.093,"lon":-0.166},{"iata":"BEQ","icao":"EGXH","name":"RAF Honington","city":"Bury Saint Edmunds, Suffolk","country":"GB","lat":52.3426,"lon":0.7729},{"iata":"WTN","icao":"EGXW","name":"RAF Waddington","city":"Lincoln, Lincolnshire","country":"GB","lat":53.1662,"lon":-0.5238},{"iata":"KNF","icao":"EGYM","name":"RAF Marham","city":"King's Lynn, Norfolk","country":"GB","lat":52.6484,"lon":0.5507},{"iata":"MPN","icao":"EGYP","name":"Mount Pleasant Airport / RAF Mount Pleasant","city":"Mount Pleasant","country":"FK","lat":-51.8226,"lon":-58.4458},{"iata":"AMS","icao":"EHAM","name":"Amsterdam Airport Schiphol","city":"Amsterdam","country":"NL","lat":52.3086,"lon":4.7639},{"iata":"MST","icao":"EHBK","name":"Maastricht Aachen Airport","city":"Maastricht","country":"NL","lat":50.9111,"lon":5.7694},{"iata":"EIN","icao":"EHEH","name":"Eindhoven Airport","city":"Eindhoven","country":"NL","lat":51.4501,"lon":5.3745},{"iata":"GRQ","icao":"EHGG","name":"Groningen Airport Eelde","city":"Groningen","country":"NL","lat":53.1191,"lon":6.5777},{"iata":"GLZ","icao":"EHGR","name":"Gilze Rijen Air Base","city":"Rijen","country":"NL","lat":51.5674,"lon":4.9318},{"iata":"DHR","icao":"EHKD","name":"De Kooy Airfield / Den Helder Naval Air Station","city":"Den Helder","country":"NL","lat":52.9234,"lon":4.7806},{"iata":"LEY","icao":"EHLE","name":"Lelystad Airport","city":"Lelystad","country":"NL","lat":52.4532,"lon":5.5146},{"iata":"LWR","icao":"EHLW","name":"Leeuwarden Air Base","city":"Leeuwarden","country":"NL","lat":53.2286,"lon":5.7606},{"iata":"RTM","icao":"EHRD","name":"Rotterdam The Hague Airport","city":"Rotterdam","country":"NL","lat":51.9569,"lon":4.4372},{"iata":"ENS","icao":"EHTW","name":"Twente Airport","city":"Enschede","country":"NL","lat":52.2758,"lon":6.8892},{"iata":"UDE","icao":"EHVK","name":"Volkel Air Base","city":"Uden","country":"NL","lat":51.6572,"lon":5.7078},{"iata":"WOE","icao":"EHWO","name":"Woensdrecht Air Base","city":"Hoogerheide","country":"NL","lat":51.4491,"lon":4.342},{"iata":"ORK","icao":"EICK","name":"Cork International Airport","city":"Cork","country":"IE","lat":51.8413,"lon":-8.4911},{"iata":"CFN","icao":"EIDL","name":"Donegal Airport","city":"Donegal","country":"IE","lat":55.0442,"lon":-8.341},{"iata":"DUB","icao":"EIDW","name":"Dublin Airport","city":"Dublin","country":"IE","lat":53.4287,"lon":-6.2621},{"iata":"NOC","icao":"EIKN","name":"Ireland West Airport Knock","city":"Charlestown","country":"IE","lat":53.9104,"lon":-8.817},{"iata":"KIR","icao":"EIKY","name":"Kerry Airport","city":"Farranfore","country":"IE","lat":52.1809,"lon":-9.5238},{"iata":"SNN","icao":"EINN","name":"Shannon Airport","city":"Shannon","country":"IE","lat":52.702,"lon":-8.9248},{"iata":"SXL","icao":"EISG","name":"Sligo Airport","city":"Sligo","country":"IE","lat":54.2802,"lon":-8.5992},{"iata":"WAT","icao":"EIWF","name":"Waterford Airport","city":"Waterford","country":"IE","lat":52.1872,"lon":-7.087},{"iata":"AAR","icao":"EKAH","name":"Aarhus Airport","city":"Aarhus","country":"DK","lat":56.3033,"lon":10.6183},{"iata":"BLL","icao":"EKBI","name":"Billund Airport","city":"Billund","country":"DK","lat":55.7403,"lon":9.157},{"iata":"CPH","icao":"EKCH","name":"Copenhagen Kastrup Airport","city":"Copenhagen","country":"DK","lat":55.6179,"lon":12.656},{"iata":"EBJ","icao":"EKEB","name":"Esbjerg Airport","city":"Esbjerg","country":"DK","lat":55.5259,"lon":8.5534},{"iata":"KRP","icao":"EKKA","name":"Midtjyllands Airport / Air Base Karup","city":"Karup","country":"DK","lat":56.2971,"lon":9.1043},{"iata":"MRW","icao":"EKMB","name":"Lolland Falster Maribo Airport","city":"Rødby","country":"DK","lat":54.6994,"lon":11.4382},{"iata":"ODE","icao":"EKOD","name":"Odense Hans Christian Andersen Airport","city":"Odense","country":"DK","lat":55.4753,"lon":10.3272},{"iata":"RKE","icao":"EKRK","name":"Copenhagen Roskilde Airport","city":"Roskilde","country":"DK","lat":55.5856,"lon":12.1314},{"iata":"RNN","icao":"EKRN","name":"Bornholm Airport","city":"Rønne","country":"DK","lat":55.0633,"lon":14.7596},{"iata":"SGD","icao":"EKSB","name":"Sønderborg Airport","city":"Sønderborg","country":"DK","lat":54.9644,"lon":9.7917},{"iata":"CNL","icao":"EKSN","name":"Sindal Airport","city":"Sindal","country":"DK","lat":57.5035,"lon":10.2294},{"iata":"SKS","icao":"EKSP","name":"Skrydstrup Air Base","city":"Vojens","country":"DK","lat":55.221,"lon":9.267},{"iata":"SQW","icao":"EKSV","name":"Skive Airport","city":"Skive","country":"DK","lat":56.5502,"lon":9.173},{"iata":"TED","icao":"EKTS","name":"Thisted Airport","city":"Thisted","country":"DK","lat":57.0688,"lon":8.7052},{"iata":"FAE","icao":"EKVG","name":"Vágar Airport","city":"Vágar","country":"FO","lat":62.0633,"lon":-7.2758},{"iata":"STA","icao":"EKVJ","name":"Stauning Vestjylland  Airport","city":"Skjern","country":"DK","lat":55.9901,"lon":8.3539},{"iata":"AAL","icao":"EKYT","name":"Aalborg Airport","city":"Aalborg","country":"DK","lat":57.0948,"lon":9.8499},{"iata":"LUX","icao":"ELLX","name":"Luxembourg-Findel International Airport","city":"Luxembourg","country":"LU","lat":49.6268,"lon":6.2121},{"iata":"AES","icao":"ENAL","name":"Ålesund Airport","city":"Ålesund","country":"NO","lat":62.5604,"lon":6.1108},{"iata":"ANX","icao":"ENAN","name":"Andøya Airport, Andenes","city":"Andenes","country":"NO","lat":69.2952,"lon":16.1394},{"iata":"ALF","icao":"ENAT","name":"Alta Airport","city":"Alta","country":"NO","lat":69.9761,"lon":23.3717},{"iata":"BNN","icao":"ENBN","name":"Brønnøysund Airport, Brønnøy","city":"Brønnøy","country":"NO","lat":65.4611,"lon":12.2175},{"iata":"BOO","icao":"ENBO","name":"Bodø Airport","city":"Bodø","country":"NO","lat":67.2692,"lon":14.3653},{"iata":"BGO","icao":"ENBR","name":"Bergen Airport, Flesland","city":"Bergen","country":"NO","lat":60.2934,"lon":5.2181},{"iata":"BJF","icao":"ENBS","name":"Båtsfjord Airport","city":"Båtsfjord","country":"NO","lat":70.6003,"lon":29.6926},{"iata":"BVG","icao":"ENBV","name":"Berlevåg Airport","city":"Berlevåg","country":"NO","lat":70.8715,"lon":29.0341},{"iata":"KRS","icao":"ENCN","name":"Kristiansand Airport","city":"Kristiansand(Kjevik)","country":"NO","lat":58.2042,"lon":8.0854},{"iata":"BDU","icao":"ENDU","name":"Bardufoss Airport","city":"Målselv","country":"NO","lat":69.0558,"lon":18.5404},{"iata":"EVE","icao":"ENEV","name":"Harstad/Narvik Airport","city":"Evenes","country":"NO","lat":68.4913,"lon":16.6781},{"iata":"FRO","icao":"ENFL","name":"Florø Airport","city":"Florø","country":"NO","lat":61.5836,"lon":5.0247},{"iata":"OSL","icao":"ENGM","name":"Oslo-Gardermoen International Airport","city":"Oslo (Gardermoen)","country":"NO","lat":60.1939,"lon":11.1004},{"iata":"HAU","icao":"ENHD","name":"Haugesund Airport, Karmøy","city":"Karmøy","country":"NO","lat":59.3453,"lon":5.2084},{"iata":"HFT","icao":"ENHF","name":"Hammerfest Airport","city":"Hammerfest","country":"NO","lat":70.6797,"lon":23.6686},{"iata":"HVG","icao":"ENHV","name":"Honningsvåg Airport, Valan","city":"Honningsvåg","country":"NO","lat":71.0097,"lon":25.9836},{"iata":"KSU","icao":"ENKB","name":"Kristiansund Airport, Kvernberget","city":"Kvernberget","country":"NO","lat":63.1118,"lon":7.8245},{"iata":"KKN","icao":"ENKR","name":"Kirkenes Airport, Høybuktmoen","city":"Kirkenes","country":"NO","lat":69.7258,"lon":29.8913},{"iata":"LKN","icao":"ENLK","name":"Leknes Airport","city":"Leknes","country":"NO","lat":68.1525,"lon":13.6094},{"iata":"MEH","icao":"ENMH","name":"Mehamn Airport","city":"Mehamn","country":"NO","lat":71.0297,"lon":27.8267},{"iata":"MOL","icao":"ENML","name":"Molde Airport, Årø","city":"Årø","country":"NO","lat":62.7447,"lon":7.2625},{"iata":"MJF","icao":"ENMS","name":"Mosjøen Airport, Kjærstad","city":"Mosjøen","country":"NO","lat":65.784,"lon":13.2149},{"iata":"LKL","icao":"ENNA","name":"Lakselv Airport, Banak","city":"Lakselv","country":"NO","lat":70.0688,"lon":24.9735},{"iata":"NTB","icao":"ENNO","name":"Notodden Airport","city":"Notodden","country":"NO","lat":59.5651,"lon":9.2132},{"iata":"OLA","icao":"ENOL","name":"Ørland Airport","city":"Ørland","country":"NO","lat":63.6989,"lon":9.604},{"iata":"HOV","icao":"ENOV","name":"Ørsta-Volda Airport, Hovden","city":"Ørsta","country":"NO","lat":62.18,"lon":6.0741},{"iata":"MQN","icao":"ENRA","name":"Mo i Rana Airport, Røssvoll","city":"Mo i Rana","country":"NO","lat":66.3639,"lon":14.3014},{"iata":"RVK","icao":"ENRM","name":"Rørvik Airport, Ryum","city":"Rørvik","country":"NO","lat":64.8383,"lon":11.1461},{"iata":"RRS","icao":"ENRO","name":"Røros Airport","city":"Røros","country":"NO","lat":62.5784,"lon":11.3423},{"iata":"LYR","icao":"ENSB","name":"Svalbard Airport, Longyear","city":"Longyearbyen","country":"NO","lat":78.2461,"lon":15.4656},{"iata":"SVJ","icao":"ENSH","name":"Svolvær Airport, Helle","city":"Svolvær","country":"NO","lat":68.2433,"lon":14.6692},{"iata":"SKN","icao":"ENSK","name":"Stokmarknes Airport, Skagen","city":"Hadsel","country":"NO","lat":68.5788,"lon":15.0334},{"iata":"SRP","icao":"ENSO","name":"Stord Airport, Sørstokken","city":"Leirvik","country":"NO","lat":59.7919,"lon":5.3409},{"iata":"SOJ","icao":"ENSR","name":"Sørkjosen Airport","city":"Sørkjosen","country":"NO","lat":69.7868,"lon":20.9594},{"iata":"VAW","icao":"ENSS","name":"Vardø Airport, Svartnes","city":"Vardø","country":"NO","lat":70.3554,"lon":31.0449},{"iata":"SSJ","icao":"ENST","name":"Sandnessjøen Airport, Stokka","city":"Alstahaug","country":"NO","lat":65.9568,"lon":12.4689},{"iata":"TOS","icao":"ENTC","name":"Tromsø Airport","city":"Tromsø","country":"NO","lat":69.6833,"lon":18.9189},{"iata":"TRF","icao":"ENTO","name":"Sandefjord Airport, Torp","city":"Sandefjord(Torp)","country":"NO","lat":59.1867,"lon":10.2586},{"iata":"TRD","icao":"ENVA","name":"Trondheim Airport, Værnes","city":"Trondheim","country":"NO","lat":63.4578,"lon":10.924},{"iata":"VDS","icao":"ENVD","name":"Vadsø Airport","city":"Vadsø","country":"NO","lat":70.0653,"lon":29.8447},{"iata":"SVG","icao":"ENZV","name":"Stavanger Airport, Sola","city":"Stavanger","country":"NO","lat":58.8767,"lon":5.6378},{"iata":"BZG","icao":"EPBY","name":"Ignacy Jan Paderewski Bydgoszcz Airport","city":"Bydgoszcz","country":"PL","lat":53.0968,"lon":17.9777},{"iata":"GDN","icao":"EPGD","name":"Gdańsk Lech Wałęsa Airport","city":"Gdańsk","country":"PL","lat":54.3776,"lon":18.4662},{"iata":"KRK","icao":"EPKK","name":"Kraków John Paul II International Airport","city":"Balice","country":"PL","lat":50.0777,"lon":19.7848},{"iata":"KTW","icao":"EPKT","name":"Katowice Wojciech Korfanty International Airport","city":"Katowice","country":"PL","lat":50.476,"lon":19.0807},{"iata":"LUZ","icao":"EPLB","name":"Lublin Airport","city":"Lublin","country":"PL","lat":51.2402,"lon":22.7135},{"iata":"LCJ","icao":"EPLL","name":"Łódź Władysław Reymont Airport","city":"Łódź","country":"PL","lat":51.7219,"lon":19.3981},{"iata":"WMI","icao":"EPMO","name":"Warsaw Modlin Airport","city":"Nowy Dwór Mazowiecki","country":"PL","lat":52.4511,"lon":20.6518},{"iata":"POZ","icao":"EPPO","name":"Poznań-Ławica Airport","city":"Poznań","country":"PL","lat":52.4216,"lon":16.8234},{"iata":"RDO","icao":"EPRA","name":"Warsaw Radom Airport","city":"Radom","country":"PL","lat":51.3894,"lon":21.2147},{"iata":"RZE","icao":"EPRZ","name":"Rzeszów-Jasionka Airport","city":"Jasionka","country":"PL","lat":50.1098,"lon":22.0242},{"iata":"SZZ","icao":"EPSC","name":"Solidarity Szczecin–Goleniów Airport","city":"Szczecin(Glewice)","country":"PL","lat":53.5847,"lon":14.9022},{"iata":"SZY","icao":"EPSY","name":"Olsztyn-Mazury Airport","city":"Szymany","country":"PL","lat":53.4819,"lon":20.9377},{"iata":"WAW","icao":"EPWA","name":"Warsaw Chopin Airport","city":"Warsaw","country":"PL","lat":52.1657,"lon":20.9671},{"iata":"WRO","icao":"EPWR","name":"Copernicus Wrocław Airport","city":"Wrocław","country":"PL","lat":51.1037,"lon":16.8821},{"iata":"IEG","icao":"EPZG","name":"Zielona Góra-Babimost Airport","city":"Nowe Kramsko","country":"PL","lat":52.1385,"lon":15.7986},{"iata":"RNB","icao":"ESDF","name":"Ronneby Airport","city":"Ronneby","country":"SE","lat":56.2667,"lon":15.265},{"iata":"GOT","icao":"ESGG","name":"Göteborg Landvetter Airport","city":"Göteborg","country":"SE","lat":57.6628,"lon":12.2798},{"iata":"JKG","icao":"ESGJ","name":"Jönköping Airport","city":"Jönköping","country":"SE","lat":57.7576,"lon":14.0687},{"iata":"GSE","icao":"ESGP","name":"Säve Airport","city":"Göteborg","country":"SE","lat":57.7747,"lon":11.8704},{"iata":"KVB","icao":"ESGR","name":"Skövde Airport","city":"Skövde","country":"SE","lat":58.4564,"lon":13.9727},{"iata":"THN","icao":"ESGT","name":"Trollhättan-Vänersborg Airport","city":"Trollhättan","country":"SE","lat":58.3181,"lon":12.345},{"iata":"KSK","icao":"ESKK","name":"Karlskoga Airport","city":"Karlskoga","country":"SE","lat":59.3459,"lon":14.4959},{"iata":"MXX","icao":"ESKM","name":"Mora Airport","city":"Mora","country":"SE","lat":60.9579,"lon":14.5114},{"iata":"NYO","icao":"ESKN","name":"Stockholm Skavsta Airport","city":"Nyköping","country":"SE","lat":58.7897,"lon":16.9115},{"iata":"SCR","icao":"ESKS","name":"Scandinavian Mountains Airport","city":"Malung-Sälen","country":"SE","lat":61.1651,"lon":12.8335},{"iata":"KID","icao":"ESMK","name":"Kristianstad Airport","city":"Kristianstad","country":"SE","lat":55.9217,"lon":14.0855},{"iata":"KLR","icao":"ESMQ","name":"Kalmar Airport","city":"Kalmar","country":"SE","lat":56.6855,"lon":16.2876},{"iata":"MMX","icao":"ESMS","name":"Malmö Sturup Airport","city":"Malmö","country":"SE","lat":55.5356,"lon":13.3763},{"iata":"HAD","icao":"ESMT","name":"Halmstad Airport","city":"Halmstad","country":"SE","lat":56.6911,"lon":12.8202},{"iata":"VXO","icao":"ESMX","name":"Växjö Kronoberg Airport","city":"Växjö","country":"SE","lat":56.9291,"lon":14.728},{"iata":"GEV","icao":"ESNG","name":"Gällivare Airport","city":"Gällivare","country":"SE","lat":67.1324,"lon":20.8146},{"iata":"KRF","icao":"ESNK","name":"Kramfors-Sollefteå Höga Kusten Airport","city":"Nyland","country":"SE","lat":63.0486,"lon":17.7689},{"iata":"LYC","icao":"ESNL","name":"Lycksele Airport","city":"Lycksele","country":"SE","lat":64.5483,"lon":18.7162},{"iata":"SDL","icao":"ESNN","name":"Sundsvall-Härnösand Airport","city":"Sundsvall/ Härnösand","country":"SE","lat":62.5281,"lon":17.4439},{"iata":"OER","icao":"ESNO","name":"Örnsköldsvik Airport","city":"Örnsköldsvik","country":"SE","lat":63.4083,"lon":18.99},{"iata":"KRN","icao":"ESNQ","name":"Kiruna Airport","city":"Kiruna","country":"SE","lat":67.822,"lon":20.3368},{"iata":"SFT","icao":"ESNS","name":"Skellefteå Airport","city":"Skellefteå","country":"SE","lat":64.6248,"lon":21.0769},{"iata":"UME","icao":"ESNU","name":"Umeå Airport","city":"Umeå","country":"SE","lat":63.7918,"lon":20.2828},{"iata":"VHM","icao":"ESNV","name":"Vilhelmina South Lapland Airport","city":"Vilhelmina","country":"SE","lat":64.5791,"lon":16.8336},{"iata":"AJR","icao":"ESNX","name":"Arvidsjaur Airport","city":"Arvidsjaur","country":"SE","lat":65.5903,"lon":19.2819},{"iata":"SOO","icao":"ESNY","name":"Söderhamn Airport","city":"Söderhamn","country":"SE","lat":61.2615,"lon":17.0991},{"iata":"OSD","icao":"ESNZ","name":"Åre Östersund Airport","city":"Östersund","country":"SE","lat":63.1935,"lon":14.5042},{"iata":"ORB","icao":"ESOE","name":"Örebro Airport","city":"Örebro","country":"SE","lat":59.2237,"lon":15.038},{"iata":"KSD","icao":"ESOK","name":"Karlstad Airport","city":"Karlstad","country":"SE","lat":59.4447,"lon":13.3374},{"iata":"VST","icao":"ESOW","name":"Stockholm Västerås Airport","city":"Stockholm / Västerås","country":"SE","lat":59.5894,"lon":16.6336},{"iata":"LLA","icao":"ESPA","name":"Luleå Airport","city":"Luleå","country":"SE","lat":65.5438,"lon":22.122},{"iata":"ARN","icao":"ESSA","name":"Stockholm-Arlanda Airport","city":"Stockholm","country":"SE","lat":59.6485,"lon":17.9288},{"iata":"BMA","icao":"ESSB","name":"Stockholm-Bromma Airport","city":"Stockholm","country":"SE","lat":59.3544,"lon":17.9417},{"iata":"BLE","icao":"ESSD","name":"Dala Airport","city":"Borlange","country":"SE","lat":60.422,"lon":15.5152},{"iata":"GVX","icao":"ESSK","name":"Gävle Sandviken Airport","city":"Gävle / Sandviken","country":"SE","lat":60.5933,"lon":16.9514},{"iata":"LPI","icao":"ESSL","name":"Linköping City Airport","city":"Linköping","country":"SE","lat":58.4049,"lon":15.6845},{"iata":"NRK","icao":"ESSP","name":"Norrköping Airport","city":"Norrköping","country":"SE","lat":58.5863,"lon":16.2506},{"iata":"TYF","icao":"ESST","name":"Torsby Airport","city":"Torsby","country":"SE","lat":60.1576,"lon":12.9913},{"iata":"EKT","icao":"ESSU","name":"Eskilstuna Airport","city":"Eskilstuna","country":"SE","lat":59.3511,"lon":16.7084},{"iata":"VBY","icao":"ESSV","name":"Visby Airport","city":"Visby","country":"SE","lat":57.6628,"lon":18.3462},{"iata":"AGH","icao":"ESTA","name":"Ängelholm-Helsingborg Airport","city":"Ängelholm","country":"SE","lat":56.2961,"lon":12.8471},{"iata":"SQO","icao":"ESUD","name":"Storuman Airport","city":"Storuman","country":"SE","lat":64.9609,"lon":17.6966},{"iata":"SPM","icao":"ETAD","name":"Spangdahlem Air Base","city":"Trier","country":"DE","lat":49.9765,"lon":6.6984},{"iata":"RMS","icao":"ETAR","name":"Ramstein Air Base","city":"Ramstein-Miesenbach","country":"DE","lat":49.4369,"lon":7.6003},{"iata":"FRZ","icao":"ETHF","name":"Fritzlar Army Airfield","city":"Fritzlar","country":"DE","lat":51.1146,"lon":9.286},{"iata":"FCN","icao":"ETMN","name":"Sea-Airport Cuxhaven/Nordholz / Nordholz Naval Airbase","city":"Wurster Nordseeküste","country":"DE","lat":53.7677,"lon":8.6592},{"iata":"GKE","icao":"ETNG","name":"Geilenkirchen Air Base","city":"Geilenkirchen","country":"DE","lat":50.9608,"lon":6.0424},{"iata":"RLG","icao":"ETNL","name":"Rostock-Laage Airport","city":"Laage","country":"DE","lat":53.9182,"lon":12.2783},{"iata":"WBG","icao":"ETNS","name":"Schleswig Air Base","city":"Jagel","country":"DE","lat":54.4593,"lon":9.5163},{"iata":"WIE","icao":"ETOU","name":"Wiesbaden Army Airfield","city":"Wiesbaden","country":"DE","lat":50.0498,"lon":8.3254},{"iata":"IGS","icao":"ETSI","name":"Ingolstadt Manching Airport","city":"Manching","country":"DE","lat":48.7157,"lon":11.534},{"iata":"LPX","icao":"EVLA","name":"Liepāja International Airport","city":"Liepāja","country":"LV","lat":56.5175,"lon":21.0969},{"iata":"RIX","icao":"EVRA","name":"Riga International Airport","city":"Riga","country":"LV","lat":56.9208,"lon":23.9707},{"iata":"KUN","icao":"EYKA","name":"Kaunas International Airport","city":"Kaunas","country":"LT","lat":54.964,"lon":24.0858},{"iata":"PLQ","icao":"EYPA","name":"Palanga International Airport","city":"Palanga","country":"LT","lat":55.9732,"lon":21.0939},{"iata":"PNV","icao":"EYPP","name":"Panevėžys Air Base","city":"Panevėžys","country":"LT","lat":55.7294,"lon":24.4608},{"iata":"SQQ","icao":"EYSA","name":"Šiauliai International Airport","city":"Šiauliai","country":"LT","lat":55.8939,"lon":23.395},{"iata":"VNO","icao":"EYVI","name":"Vilnius International Airport","city":"Vilnius","country":"LT","lat":54.6341,"lon":25.2858},{"iata":"ALJ","icao":"FAAB","name":"Alexander Bay Airport","city":"Alexander Bay","country":"ZA","lat":-28.575,"lon":16.5333},{"iata":"AGZ","icao":"FAAG","name":"Aggeneys Airport","city":"Aggeneys","country":"ZA","lat":-29.2818,"lon":18.8139},{"iata":"BIY","icao":"FABE","name":"Bisho Airport","city":"Bisho","country":"ZA","lat":-32.8971,"lon":27.2791},{"iata":"BFN","icao":"FABL","name":"Bram Fischer International Airport","city":"Bloemfontein","country":"ZA","lat":-29.0927,"lon":26.3024},{"iata":"CPT","icao":"FACT","name":"Cape Town International Airport","city":"Cape Town","country":"ZA","lat":-33.974,"lon":18.6043},{"iata":"ELS","icao":"FAEL","name":"King Phalo Airport","city":"East London","country":"ZA","lat":-33.0356,"lon":27.8259},{"iata":"FCB","icao":"FAFB","name":"Ficksburg Sentraoes Airport","city":"Ficksburg","country":"ZA","lat":-28.8231,"lon":27.9089},{"iata":"GCJ","icao":"FAGC","name":"Grand Central Airport","city":"Midrand","country":"ZA","lat":-25.9863,"lon":28.1401},{"iata":"GRJ","icao":"FAGG","name":"George Airport","city":"George","country":"ZA","lat":-34.0056,"lon":22.3789},{"iata":"QRA","icao":"FAGM","name":"Rand Airport","city":"Johannesburg","country":"ZA","lat":-26.2425,"lon":28.1512},{"iata":"HRS","icao":"FAHR","name":"Harrismith Airport","city":"Harrismith","country":"ZA","lat":-28.2351,"lon":29.1062},{"iata":"HDS","icao":"FAHT","name":"Eastgate Airport / Air Force Base Hoedspruit","city":"Hoedspruit","country":"ZA","lat":-24.3619,"lon":31.0529},{"iata":"KXE","icao":"FAKD","name":"P C Pelser Airport","city":"Klerksdorp","country":"ZA","lat":-26.8711,"lon":26.718},{"iata":"KIM","icao":"FAKM","name":"Kimberley Airport","city":"Kimberley","country":"ZA","lat":-28.8054,"lon":24.7649},{"iata":"MQP","icao":"FAKN","name":"Kruger Mpumalanga International Airport","city":"Mbombela","country":"ZA","lat":-25.3833,"lon":31.1053},{"iata":"KMH","icao":"FAKU","name":"Johan Pienaar Airport","city":"Kuruman","country":"ZA","lat":-27.4566,"lon":23.4119},{"iata":"KLZ","icao":"FAKZ","name":"Kleinsee Airport","city":"Kleinsee","country":"ZA","lat":-29.6884,"lon":17.094},{"iata":"HLA","icao":"FALA","name":"Lanseria International Airport","city":"Johannesburg","country":"ZA","lat":-25.939,"lon":27.9266},{"iata":"LMR","icao":"FALC","name":"Lime Acres Finsch Mine Airport","city":"Lime Acres","country":"ZA","lat":-28.3601,"lon":23.4391},{"iata":"DUR","icao":"FALE","name":"King Shaka International Airport","city":"Durban","country":"ZA","lat":-29.6144,"lon":31.1197},{"iata":"SDB","icao":"FALW","name":"Langebaanweg Airport","city":"Langebaanweg","country":"ZA","lat":-32.9689,"lon":18.1603},{"iata":"LAY","icao":"FALY","name":"Ladysmith Airport","city":"Ladysmith","country":"ZA","lat":-28.5817,"lon":29.7497},{"iata":"AAM","icao":"FAMD","name":"Malamala Airport","city":"Malamala","country":"ZA","lat":-24.8169,"lon":31.5441},{"iata":"MGH","icao":"FAMG","name":"Margate Airport","city":"Margate","country":"ZA","lat":-30.8574,"lon":30.343},{"iata":"MBD","icao":"FAMM","name":"Mmabatho International Airport","city":"Mafeking","country":"ZA","lat":-25.7984,"lon":25.548},{"iata":"MZQ","icao":"FAMU","name":"Mkuze Airport","city":"Mkuze","country":"ZA","lat":-27.6261,"lon":32.0443},{"iata":"NCS","icao":"FANC","name":"Newcastle Airport","city":"Newcastle","country":"ZA","lat":-27.7706,"lon":29.9769},{"iata":"OUH","icao":"FAOH","name":"Oudtshoorn Airport","city":"Oudtshoorn","country":"ZA","lat":-33.607,"lon":22.189},{"iata":"JNB","icao":"FAOR","name":"O.R. Tambo International Airport","city":"Johannesburg","country":"ZA","lat":-26.1401,"lon":28.2468},{"iata":"PLZ","icao":"FAPE","name":"Chief Dawid Stuurman International Airport","city":"Gqeberha (Port Elizabeth)","country":"ZA","lat":-33.9897,"lon":25.6174},{"iata":"PBZ","icao":"FAPG","name":"Plettenberg Bay Airport","city":"Plettenberg Bay","country":"ZA","lat":-34.0882,"lon":23.3287},{"iata":"PHW","icao":"FAPH","name":"Hendrik Van Eck Airport","city":"Phalaborwa","country":"ZA","lat":-23.9372,"lon":31.1554},{"iata":"JOH","icao":"FAPJ","name":"Port St Johns Airport","city":"Port St Johns","country":"ZA","lat":-31.6061,"lon":29.5218},{"iata":"PZB","icao":"FAPM","name":"Pietermaritzburg Airport","city":"Pietermaritzburg","country":"ZA","lat":-29.649,"lon":30.3987},{"iata":"NTY","icao":"FAPN","name":"Pilanesberg International Airport","city":"Pilanesberg","country":"ZA","lat":-25.3338,"lon":27.1734},{"iata":"PTG","icao":"FAPP","name":"Polokwane International Airport","city":"Polokwane","country":"ZA","lat":-23.8453,"lon":29.4586},{"iata":"PCF","icao":"FAPS","name":"Potchefstroom Airport","city":"Potchefstroom","country":"ZA","lat":-26.671,"lon":27.0819},{"iata":"UTW","icao":"FAQT","name":"Queenstown Airport","city":"Queenstown","country":"ZA","lat":-31.9202,"lon":26.8822},{"iata":"RCB","icao":"FARB","name":"Richards Bay Airport","city":"Richards Bay","country":"ZA","lat":-28.741,"lon":32.0921},{"iata":"ROD","icao":"FARS","name":"Robertson Airport","city":"Robertson","country":"ZA","lat":-33.8122,"lon":19.9028},{"iata":"SBU","icao":"FASB","name":"Springbok Airport","city":"Springbok","country":"ZA","lat":-29.6893,"lon":17.9396},{"iata":"ZEC","icao":"FASC","name":"Secunda Airport","city":"Secunda","country":"ZA","lat":-26.5241,"lon":29.1701},{"iata":"SIS","icao":"FASS","name":"Sishen Airport","city":"Sishen","country":"ZA","lat":-27.6486,"lon":22.9993},{"iata":"SZK","icao":"FASZ","name":"Skukuza Airport","city":"Skukuza","country":"ZA","lat":-24.9608,"lon":31.5886},{"iata":"LTA","icao":"FATZ","name":"Tzaneen Airport","city":"Tzaneen","country":"ZA","lat":-23.8244,"lon":30.3293},{"iata":"ULD","icao":"FAUL","name":"Prince Mangosuthu Buthelezi Airport","city":"Ulundi","country":"ZA","lat":-28.3206,"lon":31.4165},{"iata":"UTN","icao":"FAUP","name":"Upington Airport","city":"Upington","country":"ZA","lat":-28.4002,"lon":21.2636},{"iata":"UTT","icao":"FAUT","name":"K. D. Matanzima Airport","city":"Mthatha","country":"ZA","lat":-31.5464,"lon":28.6734},{"iata":"VRU","icao":"FAVB","name":"Vryburg Airport","city":"Vyrburg","country":"ZA","lat":-26.9824,"lon":24.7288},{"iata":"VIR","icao":"FAVG","name":"Virginia Airport","city":"Durban","country":"ZA","lat":-29.7706,"lon":31.0584},{"iata":"VRE","icao":"FAVR","name":"Vredendal Airport","city":"Vredendal","country":"ZA","lat":-31.641,"lon":18.5448},{"iata":"PRY","icao":"FAWB","name":"Wonderboom Airport","city":"Pretoria","country":"ZA","lat":-25.6539,"lon":28.2242},{"iata":"WKF","icao":"FAWK","name":"Waterkloof Air Force Base","city":"Pretoria","country":"ZA","lat":-25.83,"lon":28.2225},{"iata":"FRW","icao":"FBFT","name":"Phillip Gaonwe Matante International Airport","city":"Francistown","country":"BW","lat":-21.1592,"lon":27.4688},{"iata":"JWA","icao":"FBJW","name":"Jwaneng Airport","city":"Jwaneng","country":"BW","lat":-24.6023,"lon":24.691},{"iata":"BBK","icao":"FBKE","name":"Kasane International Airport","city":"Kasane","country":"BW","lat":-17.8317,"lon":25.1662},{"iata":"MUB","icao":"FBMN","name":"Maun International Airport","city":"Maun","country":"BW","lat":-19.9705,"lon":23.4314},{"iata":"GBE","icao":"FBSK","name":"Sir Seretse Khama International Airport","city":"Gaborone","country":"BW","lat":-24.5552,"lon":25.9182},{"iata":"SXN","icao":"FBSN","name":"Sua Pan Airport","city":"Sowa","country":"BW","lat":-20.5534,"lon":26.1158},{"iata":"PKW","icao":"FBSP","name":"Selebi Phikwe Airport","city":"Selebi Phikwe","country":"BW","lat":-22.0583,"lon":27.8288},{"iata":"BZV","icao":"FCBB","name":"Maya-Maya International Airport","city":"Brazzaville","country":"CG","lat":-4.2517,"lon":15.253},{"iata":"OLL","icao":"FCOD","name":"Oyo Ollombo Airport","city":"Oyo","country":"CG","lat":-1.2267,"lon":15.91},{"iata":"FTX","icao":"FCOO","name":"Owando Airport","city":"Owando","country":"CG","lat":-0.5246,"lon":15.9378},{"iata":"OUE","icao":"FCOU","name":"Ouesso Airport","city":"","country":"CG","lat":1.616,"lon":16.0379},{"iata":"DIS","icao":"FCPL","name":"Ngot Nzoungou Airport","city":"Dolisie","country":"CG","lat":-4.2063,"lon":12.6599},{"iata":"PNR","icao":"FCPP","name":"Antonio Agostinho-Neto International Airport","city":"Pointe Noire","country":"CG","lat":-4.816,"lon":11.8866},{"iata":"MTS","icao":"FDMS","name":"Matsapha International Airport","city":"Manzini","country":"SZ","lat":-26.5289,"lon":31.3076},{"iata":"SHO","icao":"FDSK","name":"King Mswati III International Airport","city":"Mpaka","country":"SZ","lat":-26.3586,"lon":31.7169},{"iata":"BGF","icao":"FEFF","name":"Bangui M'Poko International Airport","city":"Bangui","country":"CF","lat":4.3985,"lon":18.5188},{"iata":"BBT","icao":"FEFT","name":"Berbérati Airport","city":"Berbérati","country":"CF","lat":4.2216,"lon":15.7864},{"iata":"BSG","icao":"FGBT","name":"Bata International Airport","city":"Bata","country":"GQ","lat":1.9055,"lon":9.8057},{"iata":"GEM","icao":"FGMY","name":"President Obiang Nguema International Airport","city":"Mengomeyén","country":"GQ","lat":1.6764,"lon":11.0249},{"iata":"SSG","icao":"FGSL","name":"Malabo International Airport","city":"Malabo","country":"GQ","lat":3.7553,"lon":8.7087},{"iata":"ASI","icao":"FHAW","name":"RAF Ascension Island","city":"Cat Hill","country":"SH","lat":-7.9702,"lon":-14.3927},{"iata":"HLE","icao":"FHSH","name":"Saint Helena International Airport","city":"Jamestown","country":"SH","lat":-15.9589,"lon":-5.6461},{"iata":"MRU","icao":"FIMP","name":"Sir Seewoosagur Ramgoolam International Airport","city":"Plaine Magnien","country":"MU","lat":-20.4302,"lon":57.6836},{"iata":"RRG","icao":"FIMR","name":"Sir Charles Gaetan Duval Airport","city":"Port Mathurin","country":"MU","lat":-19.7567,"lon":63.3593},{"iata":"NKW","icao":"FJDG","name":"Naval Support Facility Diego Garcia","city":"Diego Garcia","country":"IO","lat":-7.3133,"lon":72.4111},{"iata":"TKC","icao":"FKKC","name":"Tiko Airport","city":"Tiko","country":"CM","lat":4.0892,"lon":9.3605},{"iata":"DLA","icao":"FKKD","name":"Douala International Airport","city":"Douala","country":"CM","lat":4.0061,"lon":9.7195},{"iata":"MVR","icao":"FKKL","name":"Salak Airport","city":"Maroua","country":"CM","lat":10.4514,"lon":14.2574},{"iata":"FOM","icao":"FKKM","name":"Foumban Nkounja Airport","city":"Foumban","country":"CM","lat":5.6369,"lon":10.7508},{"iata":"NGE","icao":"FKKN","name":"N'Gaoundéré Airport","city":"N'Gaoundéré","country":"CM","lat":7.357,"lon":13.5592},{"iata":"GOU","icao":"FKKR","name":"Garoua International Airport","city":"Garoua","country":"CM","lat":9.3348,"lon":13.3721},{"iata":"BFX","icao":"FKKU","name":"Bafoussam Airport","city":"Bafoussam","country":"CM","lat":5.5369,"lon":10.3546},